province_name,district_name,lat,lon,treecover_pct
Adana,Aladağ,37.66664161425269,35.387781159274844,54.58
Adana,Ceyhan,37.01188762408269,35.768197774868256,0.05
Adana,Feke,37.87149501654729,35.82175412166473,15.07
Adana,İmamoğlu,37.259450755722085,35.60816661152585,0.0
Adana,Karaisali,37.25914702378393,35.14288805669741,8.33
Adana,Karataş,36.6759794496345,35.229132124491095,0.0
Adana,Kozan,37.53681464962676,35.840943226510305,0.59
Adana,Pozantı,37.54648277891881,34.98430156975578,4.73
Adana,Saimbeyli,37.98900752876872,36.13436444012252,43.16
Adana,Seyhan,36.91276285694181,35.17898024007434,0.0
Adana,Tufanbeyli,38.27092830135996,36.2612424860836,0.0
Adana,Yumurtalık,36.710570748576025,35.61362903076997,0.23
Adana,Yüreğir,36.9702209447011,35.42196564547398,0.0
Adiyaman,Besni,37.58098423464698,37.9021105320502,0.0
Adiyaman,Çelikhan,38.05858677551078,38.32101454195479,0.0
Adiyaman,Gerger,38.02434275066536,38.99318871698758,0.0
Adiyaman,Gölbaşı,37.69827262449037,37.59807051058772,0.0
Adiyaman,Kahta,37.79951359683125,38.694339858723005,0.0
Adiyaman,Merkez,37.70841704317855,38.261284947937625,0.0
Adiyaman,Samsat,37.56570577274376,38.49118352181627,0.0
Adiyaman,Sincik,38.040170204711785,38.55041496078256,0.23
Adiyaman,Tut,37.79475172793583,37.9227827564413,0.07
Afyon,Başmakçı,37.867487273557046,30.009480465472784,0.56
Afyon,Bayat,39.025107370010666,30.925424100508373,0.0
Afyon,Bolvadin,38.77491246418936,31.219356309714343,0.0
Afyon,Çay,38.52005533784735,30.98298966884557,0.0
Afyon,Çobanlar,38.68505194274979,30.8276650025872,0.0
Afyon,Dazkırı,37.91931503587757,29.78324080300375,0.0
Afyon,Dinar,38.13963427758678,30.25053730612807,0.0
Afyon,Emirdağ,39.02826857126863,31.340214629467827,0.0
Afyon,Evciler,38.03260230243983,29.871175212743637,0.0
Afyon,Hocalar,38.580242283688726,29.949283400245346,0.0
Afyon,İhsaniye,39.02955785163041,30.469943449400898,0.0
Afyon,İscehisar,38.92538934713586,30.78299356919825,0.0
Afyon,Kızılören,38.26199409344205,30.15600167051217,0.0
Afyon,Merkez,38.7853757954168,30.536704399875862,0.0
Afyon,Sandıklı,38.45140090878305,30.180279604536608,0.0
Afyon,Sincanlı,38.74613600480689,30.254204005116105,0.75
Afyon,Şuhut,38.45333192690092,30.60005269792468,0.0
Afyon,Sultandağı,38.607430862405145,31.414961415445124,0.0
Agri,Diyadin,39.47784231622719,43.61747733837812,0.0
Agri,Doğubeyazıt,39.57772620465168,44.0361939897038,0.0
Agri,Eleşkirt,39.82510285619879,42.691230264416106,0.0
Agri,Hamur,39.50133553495088,43.08810174876008,0.0
Agri,Merkez,39.81191794435278,43.17243541088944,0.0
Agri,Patnos,39.21661251611671,42.91331429708272,0.0
Agri,Taşlıçay,39.58959087812761,43.38477277992072,0.0
Agri,Tutak,39.50821002149996,42.72018174758034,1.37
Aksaray,Ağaçören,38.65139432761589,33.840663178323666,0.0
Aksaray,Eskil,38.21935992680877,33.422025001399746,0.0
Aksaray,Gülağaç,38.36295091512031,34.320609678027004,0.0
Aksaray,Güzelyurt,38.23092826804516,34.32282038107879,0.0
Aksaray,Merkez,38.284408606216736,33.86553589635082,0.0
Aksaray,Ortaköy,38.61718846424526,34.13302931631731,0.0
Aksaray,Sarıyahşi,38.85773237788003,34.037252769632495,0.0
Amasya,Göynücek,40.35867238447269,35.538375598933854,12.33
Amasya,Gümüşhacıköy,40.909698544032864,35.21062233479086,0.0
Amasya,Hamamözü,40.76004829681186,35.12070432415393,81.68
Amasya,Merkez,40.608305141592574,35.897315177085645,0.0
Amasya,Merzifon,40.81784169512704,35.45417707392841,0.0
Amasya,Suluova,40.77809402019211,35.74691043699064,0.0
Amasya,Taşova,40.7649725578992,36.28549777548066,0.0
Ankara,Akyurt,40.06083150250431,33.16136031074967,0.0
Ankara,Altındağ,39.983391752880046,32.99614538832616,0.0
Ankara,Ayaş,40.00834633116306,32.291128093221246,0.0
Ankara,Bala,39.50941940602818,33.09593000372795,0.0
Ankara,Beypazarı,40.14862692150746,31.92869130103712,0.0
Ankara,Çamlıdere,40.46454722820688,32.44177848760462,2.07
Ankara,Çankaya,39.87827862418089,32.83355417906906,0.0
Ankara,Çubuk,40.26714035972231,33.023156870220085,0.0
Ankara,Elmadağ,39.877574921492126,33.30015144879477,0.91
Ankara,Etimesgut,39.910108075926935,32.62595591899054,0.0
Ankara,Evren,38.97881429988725,33.822783442093375,0.0
Ankara,Gölbaşı,39.64262116121575,32.81282201919034,0.0
Ankara,Güdül,40.214076700269146,32.241936758790615,0.0
Ankara,Haymana,39.3185192771997,32.59356523139481,0.0
Ankara,Kalecik,40.15854406716938,33.4550388144467,0.0
Ankara,Kazan,40.14352830725688,32.649665570911395,0.0
Ankara,Keçiören,40.05386004648713,32.8264983455073,0.0
Ankara,Kızılcahamam,40.44366479041166,32.66369741089628,23.4
Ankara,Mamak,39.8676408733446,33.0102161889436,0.0
Ankara,Nallıhan,40.1817599533106,31.31642733462549,6.68
Ankara,Polatlı,39.51473840231554,32.16931883763952,0.0
Ankara,Sincan,39.95395828425514,32.50073789721857,0.0
Ankara,Şultan Koçhisar,38.95369175839502,33.54901653806994,0.0
Ankara,Yenimahalle,39.88426464534916,32.656541104633305,0.0
Antalya,Akseki,37.05337569574966,31.847930223531677,0.0
Antalya,Alanya,36.58755447429034,32.20195394994232,12.96
Antalya,Elmalı,36.73600392488861,29.888323981747423,0.0
Antalya,Finike,36.433421276640615,30.030913037455424,0.0
Antalya,Gazipaşa,36.324611298064006,32.48116908352812,47.36
Antalya,Gündoğmuş,36.82195222023363,32.07490729446956,42.22
Antalya,İbradi,37.14851236840038,31.562885254674363,0.0
Antalya,Kale,36.27521195349218,29.91074540485377,38.4
Antalya,Kaş,36.38076218333008,29.598792609594238,11.96
Antalya,Kemer,36.53692594043173,30.47499352810554,38.91
Antalya,Korkuteli,37.052451088405626,30.17773457501594,0.0
Antalya,Kumluca,36.52403466324749,30.285552538674835,24.42
Antalya,Manavgat,37.02317371687421,31.369192334049977,36.43
Antalya,Merkez,36.9786028896458,30.636246147678914,0.62
Antalya,Serik,37.09598692978779,31.01540241806837,16.9
Ardahan,Çıldır,41.15692433888374,43.096649142856286,3.69
Ardahan,Damal,41.36154681558827,42.84665621766167,0.0
Ardahan,Göle,40.83735017508182,42.62810865420469,0.0
Ardahan,Hanak,41.26082553068453,42.77275395307841,0.0
Ardahan,Merkez,41.06458364029876,42.69550814036295,0.0
Ardahan,Posof,41.46922105274512,42.68965833449572,0.0
Artvin,Ardanuç,41.08845699117457,42.139992832460976,2.46
Artvin,Arhavi,41.234358992715286,41.354120682807874,86.83
Artvin,Borçka,41.38063140246368,41.78063321095909,91.96
Artvin,Hopa,41.39857627073446,41.47175452158588,59.95
Artvin,Merkez,41.143545773569386,41.82901130223146,26.75
Artvin,Murgul,41.19840028946911,41.53577204382872,91.3
Artvin,Şavşat,41.32293418726509,42.30327959855192,35.19
Artvin,Yusufeli,40.832995051529046,41.580932988190895,64.99
Aydin,Bozdoğan,37.666451459721365,28.41058689511569,0.0
Aydin,Buharkent,37.99635726879021,28.79191954779428,10.6
Aydin,Çine,37.61060540977861,28.03408165824508,0.07
Aydin,Didim,37.43872549178572,27.306272881738938,0.14
Aydin,Germencik,37.89078950931182,27.558021996713787,0.07
Aydin,İncirliova,37.8822378565446,27.74127118760321,34.67
Aydin,Karacasu,37.73597394836834,28.677807129558605,0.0
Aydin,Karpuzlu,37.54116061913673,27.81128830620832,3.38
Aydin,Koçarlı,37.69146602471111,27.692614036388225,60.31
Aydin,Köşk,37.94265578572072,28.106744916294183,0.0
Aydin,Kuşadası,37.8081319155238,27.31028066834257,0.17
Aydin,Kuyucak,37.95516177755434,28.64135225677836,0.0
Aydin,Merkez,37.86075951401231,27.948734337676992,2.32
Aydin,Nazilli,37.96473526911057,28.43721646850949,0.0
Aydin,Söke,37.647109966191024,27.384176272092937,3.86
Aydin,Sultanhisar,37.92034779543816,28.231412165090305,1.07
Aydin,Yenipazar,37.7914172872304,28.195918284164623,7.21
Balikesir,Ayvalık,39.28466087583266,26.792423761682542,0.0
Balikesir,Balya,39.78847988083118,27.57191199218876,4.09
Balikesir,Bandırma,40.27576757832982,27.99025271685525,0.0
Balikesir,Bigadiç,39.41755345537736,28.221024615823275,13.3
Balikesir,Burhaniye,39.45920996324414,27.02603342384482,14.3
Balikesir,Dursunbey,39.51932445034296,28.63440987235684,4.58
Balikesir,Edremit,39.67256717145215,26.936136500967603,91.3
Balikesir,Erdek,40.46009732666961,27.85331402063123,94.09
Balikesir,Gömeç,39.37739701505705,26.91375543929803,25.31
Balikesir,Gönen,40.11830801899844,27.649882885351342,0.3
Balikesir,Havran,39.60364307800635,27.20732911027484,71.62
Balikesir,İvrindi,39.52020781909714,27.42219769391825,0.91
Balikesir,Kepsut,39.69367118029154,28.24739263244854,82.72
Balikesir,Manyas,40.04799126617292,27.93686534874738,32.17
Balikesir,Marmara,40.585202255536935,27.60406049315168,24.15
Balikesir,Merkez,39.63927431501591,27.86980579209771,0.0
Balikesir,Savaştepe,39.44011441832669,27.64335058865109,0.0
Balikesir,Sındırgı,39.222190787600496,28.262462628161344,1.11
Balikesir,Susurluk,39.90541501642517,28.1324834439502,40.06
Bartın,Amasra,41.69962438705989,32.39816122067383,0.0
Bartın,Kurucaşile,41.77097556484541,32.60701297194384,25.31
Bartın,Merkez,41.51995871820567,32.35264385246661,2.16
Bartın,Ulus,41.49845072851228,32.62726106699648,0.86
Batman,Beşiri,37.90578816185334,41.41578840592358,0.0
Batman,Gercüş,37.646208635038064,41.32341591074757,0.0
Batman,Hasankeyf,37.7209098769813,41.53311306910117,0.0
Batman,Kozluk,38.184063339961206,41.47414634410836,0.0
Batman,Merkez,37.84771126621445,41.21536293987241,0.0
Batman,Sason,38.3943554434389,41.4281983243224,0.0
Bayburt,Aydıntepe,40.40667921617266,40.15511795744583,0.0
Bayburt,Demirözü,40.08685141603207,39.84707324466413,0.0
Bayburt,Merkez,40.2352630521446,40.31728489231579,0.0
Bilecik,Bozüyük,39.84992848888314,29.925561875402074,3.89
Bilecik,Gölpazarı,40.28690173180294,30.32822269585516,0.0
Bilecik,İnhisar,40.054477028029766,30.43329126784049,0.0
Bilecik,Merkez,40.1837370283268,29.950545143641925,0.0
Bilecik,Osmaneli,40.39133380080488,29.984592922439184,0.15
Bilecik,Pazaryeri,40.02805292032088,29.836646567904165,0.0
Bilecik,Söğüt,40.03626354266386,30.22700251571993,0.0
Bilecik,Yenipazar,40.22256868135607,30.562069341546472,0.41
Bingöl,Adaklı,39.265352976556414,40.59994391949918,0.0
Bingöl,Genç,38.67999604907165,40.67194136696366,0.0
Bingöl,Karlıova,39.28813763980579,40.97943516388019,0.0
Bingöl,Kiğı,39.280683666876456,40.34613229747032,0.0
Bingöl,Merkez,38.95653538140768,40.5767001518924,0.0
Bingöl,Solhan,38.94082309267707,41.08241219833148,0.05
Bingöl,Yayladere,39.21425852114746,40.13903738595207,4.64
Bingöl,Yedisu,39.45507218598347,40.64170454260995,0.0
Bitlis,Adilcevaz,38.84378505707948,42.88409050112477,0.0
Bitlis,Ahlat,38.8080426986623,42.33104847259745,0.0
Bitlis,Güroymak,38.58513433949118,42.06813446575023,0.0
Bitlis,Hizan,38.17296920802111,42.57945685936583,0.0
Bitlis,Merkez,38.30170763734375,42.086734338299166,0.0
Bitlis,Mutki,38.42641169336891,41.781486870676034,13.22
Bitlis,Tatvan,38.51799967914113,42.51828497560248,0.0
Bolu,Dörtdivan,40.62557023633769,32.015302273920305,37.84
Bolu,Gerede,40.67750222558938,32.289424493167886,59.1
Bolu,Göynük,40.35526736058966,30.831437477465787,31.19
Bolu,Kıbrıscık,40.45772979471433,31.88822325927627,57.57
Bolu,Mengen,40.93990906222086,31.990957250994988,89.31
Bolu,Merkez,40.72073195594632,31.673141976646576,0.0
Bolu,Mudurnu,40.51828726530535,31.21715317657329,0.0
Bolu,Seben,40.43696945302324,31.584044874139128,0.0
Bolu,Yeniçağa,40.80937533872298,31.99219570377489,24.37
Burdur,Ağlasun,37.631947177072746,30.593209660332683,1.65
Burdur,Altınyayla,37.04173890420034,29.5441406747095,11.01
Burdur,Bucak,37.37859072254869,30.58877637477481,13.7
Burdur,Çavdır,37.12999289460608,29.71940604797144,0.0
Burdur,Çeltikçi,37.544296263046704,30.446935392977203,3.41
Burdur,Gölhisar,37.18845572099243,29.52214544826325,0.0
Burdur,Karamanlı,37.40390578319255,29.85091477079453,0.0
Burdur,Kemer,37.37395018368012,30.10481044785544,0.0
Burdur,Merkez,37.62821741796972,30.226163400073304,0.0
Burdur,Tefenni,37.2930474558543,29.773586929586024,0.0
Burdur,Yeşilova,37.59087483186178,29.78477474607546,0.0
Bursa,Büyükorhan,39.74222592946965,28.84076119702224,23.27
Bursa,Gemlik,40.43308628997939,29.15077065434237,0.0
Bursa,Gürsu,40.26506435710233,29.179195644003936,0.0
Bursa,Harmancık,39.654208919373616,29.110398587566632,61.33
Bursa,İnegöl,40.0349870607832,29.522770543575465,0.53
Bursa,İznik,40.489658157507016,29.681730234274216,0.7
Bursa,Karacabey,40.2506147447206,28.366260752503567,0.07
Bursa,Keles,39.89087917800992,29.222322089412927,35.15
Bursa,Kestel,40.189204642800526,29.25484189721345,11.1
Bursa,Mudanya,40.329420837948334,28.76125777747832,0.22
Bursa,Mustafa Kemalpaşa,39.975895156889386,28.512530197711737,31.78
Bursa,Nilüfer,40.22204261687022,28.890598728375533,0.0
Bursa,Orhaneli,39.92629502402387,28.916652404445635,33.83
Bursa,Orhangazi,40.46876919313118,29.350114594256453,0.0
Bursa,Osmangazi,40.081832405102254,29.07018973707085,24.81
Bursa,Yenişehir,40.280319560486575,29.591409411245856,0.0
Bursa,Yıldırım,40.18449058904989,29.08512512822974,0.0
Çanakkale,Ayvacık,39.586787543162686,26.37142036619736,9.1
Çanakkale,Bayramiç,39.84608290314919,26.68506927799216,0.0
Çanakkale,Biga,40.27712729839052,27.22471955345804,0.89
Çanakkale,Bozcaada,39.82570681379318,26.033950596135277,0.0
Çanakkale,Çan,40.039921613613885,26.995281790417074,1.32
Çanakkale,Eceabat,40.23705377484916,26.32878444433767,27.11
Çanakkale,Ezine,39.7982110334579,26.29104962503681,0.0
Çanakkale,Gelibolu,40.54595869892671,26.75946735682376,0.0
Çanakkale,Gökçeada,40.16148758566151,25.839946595793297,15.06
Çanakkale,Lapseki,40.26930252455806,26.786739180265368,29.77
Çanakkale,Merkez,40.051362018967694,26.49063137622703,1.53
Çanakkale,Yenice,39.953529136827726,27.28701330683691,15.75
Çankiri,Atkaracalar,40.854304922089554,33.133748881522905,0.0
Çankiri,Bayramören,41.0001410314044,33.22357399902238,94.73
Çankiri,Çerkeş,40.83111254275211,32.81619634601364,0.0
Çankiri,Eldivan,40.50778080478367,33.50606842367421,24.23
Çankiri,Ilgaz,40.932345353961736,33.697422077235494,33.35
Çankiri,Kızılırmak,40.368500435969366,33.9952849542275,14.57
Çankiri,Korgun,40.71809812293938,33.49732370486053,0.0
Çankiri,Kurşunlu,40.8353723778876,33.35167261689867,0.0
Çankiri,Merkez,40.520493896493576,33.77204892329665,0.0
Çankiri,Orta,40.63803171594383,33.09373290936319,0.0
Çankiri,Şabanözü,40.47935194484709,33.2725376007997,0.0
Çankiri,Yapraklı,40.72405859885532,33.951223939992595,0.0
Çorum,Alaca,40.15899445480406,34.9114473180059,0.0
Çorum,Bayat,40.67088143137234,34.21243326562259,0.0
Çorum,Boğazkale,40.05695932229837,34.5917298617765,0.0
Çorum,Dodurga,40.841556572932326,34.77285015478549,0.04
Çorum,İskilip,40.79475404017048,34.44576684481841,34.8
Çorum,Kargı,41.13507828874499,34.50404949077588,8.8
Çorum,Laçin,40.76479887239133,34.92092028962781,2.46
Çorum,Mecitözü,40.48318037093678,35.275709351222815,0.0
Çorum,Merkez,40.48975217910049,34.875468919946535,0.0
Çorum,Oğuzlar,40.78869540381118,34.658254903967546,0.4
Çorum,Ortaköy,40.270835320527496,35.26329676387318,0.0
Çorum,Osmancık,41.00692975662824,34.844932177816304,0.0
Çorum,Sungurlu,40.19507484008395,34.32267601283664,0.0
Çorum,Uğurludağ,40.464284947492736,34.44794945672919,0.0
Denizli,Acıpayam,37.33933383939545,29.33396507387319,19.35
Denizli,Akköy,37.94103850464806,29.086027955019617,0.0
Denizli,Babadağ,37.77111400029565,28.898037396240795,29.73
Denizli,Baklan,37.92459317400562,29.54562852887636,0.0
Denizli,Bekilli,38.18746994776894,29.436349283272563,0.0
Denizli,Beyağaç,37.24500268960412,28.9225463583052,0.0
Denizli,Bozkurt,37.740664155312416,29.541026087153085,8.2
Denizli,Buldan,38.09587092586782,28.876152875964728,0.0
Denizli,Çal,38.02226458442735,29.352446079966764,0.0
Denizli,Çameli,37.01755459625872,29.233624784482405,0.0
Denizli,Çardak,37.75051688722983,29.69483873165797,0.0
Denizli,Çivril,38.22227530807361,29.778093222564102,0.0
Denizli,Güney,38.142722497048815,29.063872953575608,1.51
Denizli,Honaz,37.734171775458215,29.329039908395,48.68
Denizli,Kale,37.43766297456657,28.74912834300417,9.6
Denizli,Merkez,37.79372417019381,29.13234088059556,1.14
Denizli,Sarayköy,37.89836458698163,28.912885148733352,0.0
Denizli,Serinhisar,37.552817219173086,29.281140957698558,0.0
Denizli,Tavas,37.46421051239274,29.01421998591196,0.0
Diyarbakir,Bismil,37.89940003676535,40.80332630683015,0.0
Diyarbakir,Çermik,38.088946634460925,39.4631838299742,0.0
Diyarbakir,Çınar,37.71254949092104,40.18711926362229,0.0
Diyarbakir,Çüngüş,38.26689127466445,39.30862010536757,0.15
Diyarbakir,Dicle,38.38247131903288,40.11464178817592,0.0
Diyarbakir,Eğil,38.216758677039486,40.139863645280656,0.0
Diyarbakir,Ergani,38.15919877423429,39.75665517759505,0.0
Diyarbakir,Hani,38.39594303975099,40.42532191536514,0.0
Diyarbakir,Hazro,38.26052010485517,40.783690953678175,0.0
Diyarbakir,Kocaköy,38.25372461152036,40.53853481913383,0.0
Diyarbakir,Kulp,38.51204705807711,41.141721602528456,0.0
Diyarbakir,Lice,38.46391255755479,40.68807787732522,0.0
Diyarbakir,Merkez,38.01102471080012,40.21933226021625,53.16
Diyarbakir,Silvan,38.16098998503084,40.98316542366104,0.0
Düzce,Akçakoca,41.045781575012136,31.20331535525017,95.9
Düzce,Çilimli,40.909439777811,31.092615059456215,49.46
Düzce,Cumayeri,40.91700443544357,30.97827017838317,94.28
Düzce,Gölyaka,40.7516337344745,31.044692126761472,91.56
Düzce,Gümüşova,40.840283603853095,30.9661187582642,3.96
Düzce,Kaynaşlı,40.73727736076305,31.27653756299408,83.57
Düzce,Merkez,40.89086619807287,31.26042024552148,79.75
Düzce,Yığılca,40.96771380981594,31.53337582131661,33.75
Edirne,Enez,40.68357304504882,26.20099290352894,0.07
Edirne,Havsa,41.56683790153863,26.83926846426524,0.0
Edirne,İpsala,40.92567377527445,26.40286467108213,0.04
Edirne,Keşan,40.79108325519056,26.57759425860664,0.0
Edirne,Lalapaşa,41.90005539069267,26.763840264450558,0.0
Edirne,Meriç,41.18595682542997,26.430161618688413,0.07
Edirne,Merkez,41.69692646782676,26.58610117041742,0.21
Edirne,Süleoğlu,41.79834487990778,26.887079499801484,0.0
Edirne,Uzunköprü,41.23960793303152,26.720059014763876,0.0
Elazığ,Ağın,38.936466589585024,38.696779330751454,0.0
Elazığ,Alacakaya,38.50053253041583,39.85328384188119,0.0
Elazığ,Aricak,38.5449679461262,40.13652506034392,0.0
Elazığ,Baskil,38.56088294896374,38.64336950938127,0.0
Elazığ,Karakoçan,38.99503194877698,40.11136508785218,0.0
Elazığ,Keban,38.76359890770932,38.75631265855217,0.0
Elazığ,Kovancılar,38.74977258541836,39.8337368411011,0.0
Elazığ,Maden,38.45017084855697,39.56469161870266,0.0
Elazığ,Merkez,38.66470595655887,39.20746626635856,0.0
Elazığ,Palu,38.683891493216144,40.071355126229285,1.86
Elazığ,Sivrice,38.42114193139631,39.12886769213131,0.0
Erzincan,Çayırlı,39.81310673034024,39.93193177634769,0.0
Erzincan,İliç,39.52388791883921,38.5666157668834,0.0
Erzincan,Kemah,39.60381991193078,39.02807984171855,0.0
Erzincan,Kemaliye,39.22161286874497,38.597820713163976,1.04
Erzincan,Merkez,39.709070470902674,39.46140511571247,0.0
Erzincan,Otlukbeli,39.98395877449107,40.09016155507552,0.0
Erzincan,Refahiye,39.87494518479539,38.75901587965283,0.0
Erzincan,Tercan,39.70640038835201,40.35403373045475,0.0
Erzincan,Üzümlü,39.6721184494603,39.83522287347834,0.0
Erzurum,Aşkale,39.9151418337412,40.63284600712492,0.0
Erzurum,Çat,39.64434908406401,40.92674632515045,0.59
Erzurum,Hınıs,39.35478320127616,41.71943713681075,0.0
Erzurum,Horasan,40.03768146720374,42.20933963497644,0.0
Erzurum,Ilıca,40.06051189027708,40.96586411948908,0.0
Erzurum,İspir,40.53903127305815,41.010440924012286,22.04
Erzurum,Karaçoban,39.32701052554236,42.04459222035834,0.0
Erzurum,Karayazı,39.64162796013903,42.1316745234716,0.0
Erzurum,Köprüköy,39.93353079704202,41.93307892221484,0.0
Erzurum,Merkez,40.01693654095463,41.29563965599053,0.0
Erzurum,Narman,40.30387369662182,41.876795644186885,0.0
Erzurum,Oltu,40.54118481933966,41.9584050237501,0.0
Erzurum,Olur,40.849712765087446,42.145239424823885,0.0
Erzurum,Pasinler,40.00175713156368,41.65538810715601,0.0
Erzurum,Pazaryolu,40.44410649105653,40.65849911750096,0.22
Erzurum,Şenkaya,40.56645745377416,42.348716120422495,0.51
Erzurum,Tekman,39.60753193621327,41.42922346825596,0.0
Erzurum,Tortum,40.37590453023648,41.39298011700696,0.0
Erzurum,Uzundere,40.57650451547059,41.617590577405295,3.23
Eskisehir,Alpu,39.83988312055947,31.07249882759193,0.0
Eskisehir,Beylikova,39.7313679564012,31.28417813418209,0.0
Eskisehir,Çifteler,39.32468419460864,31.079276786337147,0.0
Eskisehir,Günyüzü,39.4335074401434,31.874961295634886,0.0
Eskisehir,Han,39.21412280379657,30.78813344360013,0.0
Eskisehir,İnönü,39.78025420854546,30.142653494305435,0.0
Eskisehir,Mahmudiye,39.54338396933078,31.02808676975388,0.0
Eskisehir,Merkez,39.76893817537347,30.586076717492112,0.0
Eskisehir,Mihalgazi,40.01225192040028,30.615698309231338,24.88
Eskisehir,Mihalıçcık,39.87486384265517,31.53077474630881,24.17
Eskisehir,Sarıcakaya,40.09445525583495,30.71246732768952,21.62
Eskisehir,Seyitgazi,39.38052733519961,30.622506372961663,0.0
Eskisehir,Sivrihisar,39.40050425959527,31.544173630328824,0.0
Gaziantep,Araban,37.43818854151698,37.79557725264918,0.0
Gaziantep,İslahiye,36.978422767614965,36.68767500454448,0.0
Gaziantep,Karkamış,36.819220074033495,37.87956431534849,0.0
Gaziantep,Nizip,37.005112141082805,37.77127482802177,0.0
Gaziantep,Nurdağı,37.164145566714105,36.8617928569572,0.0
Gaziantep,Oğuzeli,36.83216573670972,37.53786597505074,0.0
Gaziantep,Şahinbey,36.9848777203703,37.27574881932845,0.0
Gaziantep,Şehitkamil,37.18123112482387,37.34805276457861,0.0
Gaziantep,Yavuzeli,37.29676474471246,37.64446922572372,0.0
Giresun,Alucra,40.38300992492985,38.77761314507524,0.0
Giresun,Bulancak,40.74680260913492,38.19549424051211,74.26
Giresun,Çamoluk,40.12768903921624,38.76856973995934,0.1
Giresun,Çanakçı,40.83607572978308,39.0175361684549,83.2
Giresun,Dereli,40.61246224068168,38.41243565736755,96.02
Giresun,Doğankent,40.75586227509237,38.94067236805108,88.36
Giresun,Espiye,40.87274118614263,38.73074961805524,80.84
Giresun,Eynesil,40.99567250576602,39.10455368617882,54.68
Giresun,Görele,40.93177975042658,38.85131419626621,41.89
Giresun,Güce,40.66755698293265,38.80471169514468,0.0
Giresun,Keşap,40.85842518009639,38.55598510480113,80.68
Giresun,Merkez,40.80986585295606,38.38389637189282,59.0
Giresun,Piraziz,40.85906200672639,38.12087716720453,69.8
Giresun,Şultan Karahisar,40.32327665105763,38.43147719535128,0.69
Giresun,Tirebolu,40.96485667487345,39.00478628619495,64.73
Giresun,Yağlıdere,40.75016807456692,38.68191738035266,72.12
Gümüshane,Kelkit,40.04567172458867,39.43654363730852,0.0
Gümüshane,Köse,40.187759985737785,39.67972403749734,0.0
Gümüshane,Kürtün,40.626054578382295,39.02396728252227,50.19
Gümüshane,Merkez,40.44555134314321,39.68167430901277,0.0
Gümüshane,Şiran,40.18182623515428,39.09087130593334,0.0
Gümüshane,Torul,40.49509076127431,39.21107124554808,26.74
Hakkari,Çukurca,37.30133061417332,43.67580408541689,1.33
Hakkari,Merkez,37.51429578294851,43.71555580575328,0.0
Hakkari,Şemdinli,37.26871304501031,44.48406706645383,0.0
Hakkari,Yüksekova,37.55132641531982,44.22545665911954,0.0
Hatay,Altınözü,36.077362500758845,36.27738870510159,0.0
Hatay,Belen,36.463036453427264,36.16665447695214,1.35
Hatay,Dörtyol,36.821034067384296,36.29969350038391,64.86
Hatay,Erzin,36.95690722263653,36.11736068446133,1.69
Hatay,Hassa,36.76514947160238,36.5061022398374,0.0
Hatay,İskenderun,36.47368683565411,36.05519234519519,39.23
Hatay,Kırıkhan,36.49365230933255,36.40729317118653,0.0
Hatay,Kumlu,36.34933386810197,36.54898577987408,0.0
Hatay,Merkez,36.24125769712964,36.136416775852645,1.63
Hatay,Reyhanlı,36.26471058756778,36.476622426828754,0.15
Hatay,Samandağ,36.17747158776889,35.953866701866424,29.7
Hatay,Yayladağı,35.93607206824389,36.08127499398871,36.63
Iğdır,Aralık,39.81909803789586,44.45019438381413,0.0
Iğdır,Karakoyunlu,40.00453196228917,44.24665510497954,0.0
Iğdır,Merkez,39.861036652191466,44.03699765698201,0.15
Iğdır,Tuzluca,39.9899571445607,43.5646862523151,0.0
Isparta,Aksu,37.71958423413392,31.22850716642059,50.7
Isparta,Atabey,37.95374904227972,30.61521940737025,3.81
Isparta,Eğirdir,37.82205114130962,30.91082815075846,51.21
Isparta,Gelendost,38.07833468362622,31.05491689724457,0.0
Isparta,Gönen,37.945537916034624,30.44781907299732,0.04
Isparta,Keçiborlu,37.87842901793429,30.250525092170108,0.0
Isparta,Merkez,37.80207146777093,30.60177514464697,0.0
Isparta,Şarkikaraağaç,38.05874030739152,31.374744423455677,1.41
Isparta,Senirkent,38.12715507056526,30.67740919674908,0.0
Isparta,Sütçüler,37.51636846526053,31.084157244337096,0.0
Isparta,Uluborlu,38.08199843581524,30.47692246009521,2.96
Isparta,Yalvaç,38.29591231571657,31.09706058191733,0.42
Isparta,Yenişarbademli,37.80004196343562,31.364197813179263,1.43
Istanbul,Adalar,40.870840199799005,29.09589199563971,29.54
Istanbul,Arnavutkoy,41.22317279987966,28.69244099234957,4.43
Istanbul,Atasehir,41.00336548670554,29.11740621591277,2.96
Istanbul,Avcılar,41.02166473380876,28.726502530152345,0.0
Istanbul,Bağcılar,41.04588412173794,28.838456582007097,0.0
Istanbul,Bahçelievler,41.013296627028936,28.83592824502312,0.0
Istanbul,Bakırköy,40.98364353516592,28.827035969402267,0.0
Istanbul,Basaksehir,41.09465405294947,28.77343939805951,0.0
Istanbul,Bayrampaşa,41.05509608673799,28.895123272774008,0.0
Istanbul,Beşiktaş,41.07073951360178,29.01875794466796,0.0
Istanbul,Beykoz,41.15210558329999,29.2022041944512,92.25
Istanbul,Beylikduzu,40.986155998030455,28.64918154538088,0.0
Istanbul,Beyoğlu,41.040733141941466,28.966952511595764,0.0
Istanbul,Büyükçekmece,41.04887474327648,28.5547952712492,0.0
Istanbul,Çatalca,41.303680786419086,28.403950627033687,94.22
Istanbul,Çekmekoy,41.08152979037292,29.278654285926937,92.69
Istanbul,Esenler,41.06498663503229,28.867542858845773,0.0
Istanbul,Esenyurt,41.04567353283205,28.67143399099698,0.0
Istanbul,Eyüp,41.19085996166908,28.89908925594364,58.74
Istanbul,Fatih,41.01406336197062,28.94128672574013,0.0
Istanbul,Gaziosmanpaşa,41.07521172730295,28.90479607199568,0.0
Istanbul,Güngören,41.02401986029414,28.87440566597237,0.0
Istanbul,Kadıköy,40.99514327048232,29.0487947318557,0.0
Istanbul,Kağıthane,41.08529370921891,28.969511875681288,0.0
Istanbul,Kartal,40.93256571728403,29.17954287028946,37.64
Istanbul,Küçükçekmece,41.029751786033096,28.779733067186463,0.0
Istanbul,Maltepe,40.96717477627857,29.137476253659297,12.05
Istanbul,Pendik,40.97064187094709,29.32430391148227,21.07
Istanbul,Sancaktepe,41.023229585430045,29.24680873364361,0.0
Istanbul,Sarıyer,41.1918629624813,29.02788128085068,9.62
Istanbul,Şile,41.1071150031493,29.581913800310478,57.6
Istanbul,Silivri,41.16277749487677,28.26095576819644,0.04
Istanbul,Şişli,41.10578926660864,28.988598793102064,4.89
Istanbul,Sultanbeyli,40.982527371781714,29.256979074047106,0.0
Istanbul,Sultangazi,41.11716969056438,28.88087103319228,7.8
Istanbul,Tuzla,40.9199190412752,29.34862551544422,0.0
Istanbul,Ümraniye,41.03728583436568,29.123291376221548,47.54
Istanbul,Üsküdar,41.04382254154166,29.056958353129836,3.64
Istanbul,Zeytinburnu,41.00642581236035,28.899326167797422,0.0
Izmir,Aliağa,38.80984645537967,27.0366243323014,0.0
Izmir,Balçova,38.38425724016951,27.06149863200663,0.0
Izmir,Bayındır,38.26169206311682,27.650937876039823,11.79
Izmir,Bergama,39.17315026306584,27.19028050880369,0.22
Izmir,Beydağ,38.08007767245198,28.23019425083093,0.19
Izmir,Bornova,38.48514375796732,27.261047357052263,34.98
Izmir,Buca,38.34707608465182,27.26032516179064,0.41
Izmir,Çeşme,38.28010311355429,26.379489247397444,0.0
Izmir,Çiğli,38.486650496230666,26.99132528919394,0.0
Izmir,Dikili,39.06938533634467,26.90766279846804,0.0
Izmir,Foça,38.68366951144227,26.83164010258421,0.0
Izmir,Gaziemir,38.318739444378345,27.150788156781367,6.94
Izmir,Güzelbahçe,38.333506743031485,26.89707340663368,0.0
Izmir,Karaburun,38.554937233660304,26.47724517819197,60.38
Izmir,Karşıyaka,38.49771662354196,27.12715789337989,1.58
Izmir,Kemalpaşa,38.42256139569008,27.486768909352,1.73
Izmir,Kınık,39.060858645640046,27.369724603612266,41.93
Izmir,Kiraz,38.20993273150171,28.314340876911736,19.59
Izmir,Konak,38.38447364387719,27.130677990594947,0.0
Izmir,Menderes,38.15616779636554,27.11301236225148,0.0
Izmir,Menemen,38.63050696319171,27.065105117551457,0.04
Izmir,Narlıdere,38.36624294995448,27.000088042200318,14.64
Izmir,Ödemiş,38.21616808631224,27.985920019960016,0.07
Izmir,Seferihisar,38.17087635037506,26.875362993764405,0.7
Izmir,Selçuk,37.96023968098233,27.357522865184663,0.0
Izmir,Tire,38.06487039819864,27.69794212876306,2.25
Izmir,Torbalı,38.18078158026846,27.35728581417505,0.0
Izmir,Urla,38.30512999454725,26.628831322169063,14.54
K. Maras,Afşin,38.39502181678711,36.86916151565376,0.0
K. Maras,Andırın,37.60144823999392,36.410449783125216,0.99
K. Maras,Çağlayancerit,37.73564987333556,37.27938712946656,0.0
K. Maras,Ekinözü,38.01214733018902,37.10210282089438,0.0
K. Maras,Elbistan,38.290124742715975,37.36584503436358,0.0
K. Maras,Göksun,38.09481454692206,36.61979168350132,0.0
K. Maras,Merkez,37.663446446223325,36.8479689866216,2.36
K. Maras,Nurhak,37.92851827118248,37.39155216744869,0.0
K. Maras,Pazarcık,37.457507003529535,37.30149729062399,0.0
K. Maras,Türkoğlu,37.37613537699893,36.78514751468361,0.0
Karabük,Eflani,41.41756215258194,32.901875855141505,28.86
Karabük,Eskipazar,40.96750057723487,32.520815995349075,36.33
Karabük,Merkez,41.11644535700007,32.54151572491861,2.42
Karabük,Ovacık,41.083980391464806,32.91549842350588,0.0
Karabük,Safranbolu,41.29167161452997,32.708259566328955,1.21
Karabük,Yenice,41.12443053602763,32.23257393496578,83.74
Karaman,Ayrancı,37.29748360435355,33.714947105302535,0.0
Karaman,Başyayla,36.71081739336535,32.71356906949194,0.0
Karaman,Ermenek,36.6047431893838,32.8891579394211,0.0
Karaman,Kazımkarabekir,37.07092534017522,32.792583879808724,0.0
Karaman,Merkez,37.13511034870772,33.17993087230495,0.0
Karaman,Sarıveliler,36.65053913147808,32.57587805318054,0.0
Kars,Akyaka,40.84302254538761,43.62180045229728,0.0
Kars,Arpaçay,40.96470193254656,43.35864185008969,0.0
Kars,Digor,40.40381560687182,43.4557782026965,0.0
Kars,Kağızman,40.18341220192082,43.11255528603342,0.0
Kars,Merkez,40.622435773810025,43.26038325865019,0.0
Kars,Sarıkamış,40.19680465045524,42.5622000060736,0.0
Kars,Selim,40.50165322285616,42.77289360363134,0.0
Kars,Susuz,40.83415356522679,43.0522554373577,0.0
Kastamonu,Abana,41.95182748333961,33.98623153859628,83.2
Kastamonu,Ağlı,41.675876020872366,33.55078237488371,52.98
Kastamonu,Araç,41.194805355516095,33.285543390515365,54.33
Kastamonu,Azdavay,41.71397896056427,33.33726627946292,27.83
Kastamonu,Bozkurt,41.87419739065382,33.95704133708591,9.62
Kastamonu,Çatalzeytin,41.85386828106279,34.144230824299875,81.15
Kastamonu,Cide,41.82858910874938,32.98224052250757,20.9
Kastamonu,Daday,41.4702747290469,33.3234094741664,80.37
Kastamonu,Devrekani,41.66486687461592,33.90800868299882,15.33
Kastamonu,Doğanyurt,41.9471924980133,33.41351062821061,26.63
Kastamonu,Hanönü,41.64965200515454,34.440398344150665,14.58
Kastamonu,İhsangazi,41.18031064916876,33.64330541856923,30.23
Kastamonu,İnebolu,41.91298834206647,33.71829021256155,78.41
Kastamonu,Küre,41.799941459565694,33.66256395700428,50.57
Kastamonu,Merkez,41.31151494459038,33.859158039636974,0.1
Kastamonu,Pınarbası,41.63597756722295,33.00607773052715,33.49
Kastamonu,Şenpazar,41.81584733949298,33.202466193132814,95.63
Kastamonu,Seydiler,41.61465876724663,33.68441354008949,0.09
Kastamonu,Taşköprü,41.466813350042585,34.217867658873026,0.0
Kastamonu,Tosya,40.999952237588765,34.057429339221834,0.0
Kayseri,Akkışla,39.02101655593809,36.18818206901898,0.0
Kayseri,Bünyan,38.836125348556855,35.908011422283806,0.0
Kayseri,Develi,38.34155780038354,35.67977561338044,0.0
Kayseri,Felahiye,39.07515952405515,35.492419036519415,0.0
Kayseri,Hacılar,38.68805138410284,35.408237795817875,0.0
Kayseri,İncesu,38.68818288046348,35.21346174195317,0.0
Kayseri,Kocasinan,38.903984951106914,35.38692989423443,0.0
Kayseri,Melikgazi,38.73986797145639,35.4628611173308,0.0
Kayseri,Özvatan,39.17704181576203,35.72907104068133,0.0
Kayseri,Pınarbaşı,38.88360341490513,36.49520831901496,0.11
Kayseri,Sarıoğlan,39.108292754697054,35.906872816256964,0.0
Kayseri,Sarız,38.55438985249052,36.53860965614989,0.0
Kayseri,Talas,38.67658400695092,35.64836255811835,0.0
Kayseri,Tomarza,38.50005173368307,35.94598679412606,0.0
Kayseri,Yahyalı,38.13542303708428,35.464857253146825,0.0
Kayseri,Yeşilhisar,38.425474014151625,35.134583423333886,0.0
Kilis,Elbeyli,36.70656393961672,37.41855746501786,0.0
Kilis,Merkez,36.738730163316994,37.15574732437857,0.0
Kilis,Musabeyli,36.90707259418199,37.01232755487428,0.0
Kilis,Polateli,36.84004315450963,37.16552577132454,0.0
Kinkkale,Bahşılı,39.52007963732624,33.36030063208494,0.0
Kinkkale,Balışeyh,39.88863270010308,33.73086506032924,0.0
Kinkkale,Çelebi,39.30544537902712,33.46108592745908,1.95
Kinkkale,Delice,39.992474158765305,33.99996060680521,0.0
Kinkkale,Karakeçili,39.39222741353078,33.3406152393033,0.0
Kinkkale,Keskin,39.5860255047836,33.69578909155509,0.0
Kinkkale,Merkez,39.67372996803031,33.528296800201964,0.0
Kinkkale,Sulakyurt,40.14055730814778,33.7702916314762,0.0
Kinkkale,Yahşihan,39.71111747157372,33.407742318472074,0.0
Kirklareli,Babaeski,41.4891757023664,27.11704832313898,0.23
Kirklareli,Demirköy,41.85890314443117,27.813727934139447,76.57
Kirklareli,Kofçaz,42.00959251408447,27.152962384957853,59.98
Kirklareli,Lüleburgaz,41.40873425332784,27.44797403061313,0.0
Kirklareli,Merkez,41.79679164619043,27.24409889272693,0.0
Kirklareli,Pehlivanköy,41.38203876352067,26.9547054686771,0.0
Kirklareli,Pınarhisar,41.63684756931077,27.548721332237697,0.0
Kirklareli,Vize,41.62198042968272,27.864879549390896,56.73
Kirsehir,Akçakent,39.65801129584688,34.07340287001202,35.63
Kirsehir,Akpınar,39.469317629716926,33.97461834759443,0.0
Kirsehir,Boztepe,39.35482538239514,34.41616640625469,0.0
Kirsehir,Çiçekdağı,39.58560528717742,34.38960608600167,0.0
Kirsehir,Kaman,39.2740813827992,33.783678531692594,0.0
Kirsehir,Merkez,39.14276997215997,34.151790560061265,0.0
Kirsehir,Mucur,39.12749158770858,34.47687633199949,0.0
Kocaeli,Derince,40.92600433466427,29.87295713249292,1.33
Kocaeli,Gebze,40.89282812804596,29.515156327598778,35.4
Kocaeli,Gölcük,40.66098435326528,29.787858646313172,90.68
Kocaeli,Kandıra,41.03665775752437,30.14009229954649,8.89
Kocaeli,Karamürsel,40.63211886278607,29.555430423265957,0.4
Kocaeli,Körfez,40.90041555918955,29.73060629570113,51.16
Kocaeli,Merkez,40.77605737856626,30.045464850878933,0.0
Konya,Ahırlı,37.23831890824377,32.083100411080174,0.14
Konya,Akören,37.41155669888813,32.33093449278149,0.0
Konya,Akşehir,38.34847070999706,31.480696777778707,46.26
Konya,Altınekin,38.2799675304721,32.90091978625551,0.0
Konya,Beyşehir,37.68898506812776,31.685684457583136,0.0
Konya,Bozkır,37.148767608002,32.34499113718936,0.0
Konya,Çeltik,39.01507920448279,31.90400523018877,0.0
Konya,Cihanbeyli,38.68253065488768,32.918607177383706,0.0
Konya,Çumra,37.48230572250795,32.76686116715732,0.0
Konya,Derbent,37.97709786720253,32.06683773688085,0.0
Konya,Derebucak,37.397430403771104,31.51839217373538,0.0
Konya,Doğanhisar,38.11808182319965,31.669181782290757,16.15
Konya,Emirgazi,37.89559389867141,33.887236856925576,0.0
Konya,Ereğli,37.6128726817497,34.100274073132965,0.0
Konya,Güneysınır,37.26223336258701,32.73956402992996,0.0
Konya,Hadım,36.95720628842321,32.46229990016329,0.0
Konya,Halkapınar,37.32917479360458,34.26514075535089,0.0
Konya,Hüyük,37.913990516495865,31.592019338962547,0.0
Konya,Ilgın,38.22752452189029,31.938845120069576,0.0
Konya,Kadınhanı,38.35367404500432,32.23500259201729,0.0
Konya,Karapınar,37.67785755469574,33.443256217669926,0.0
Konya,Karatay,37.881286516808686,32.99467643107432,0.0
Konya,Kulu,39.01796694643443,33.10920081993712,0.0
Konya,Meram,37.69899989029624,32.25729975466512,0.0
Konya,Sarayönü,38.37737470486467,32.45987588098039,0.0
Konya,Selçuklu,38.01834468476292,32.56531521025059,0.0
Konya,Seydişehir,37.45269788090661,31.912295349691483,0.0
Konya,Taşkent,36.84685829698951,32.5470541623155,0.0
Konya,Tuzlukçu,38.48928912748504,31.68455028302206,0.0
Konya,Yalıhüyük,37.28255740495696,32.0482470532628,0.0
Konya,Yunak,38.76669278015189,32.076160994819176,0.0
Kütahya,Altıntaş,39.01348945332598,29.99986929755896,25.2
Kütahya,Aslanapa,39.18023267315792,29.78595214155916,14.28
Kütahya,Çavdarhisar,39.16429472320813,29.59259232770093,0.0
Kütahya,Domaniç,39.81556528903673,29.544204456914937,9.59
Kütahya,Dumlupınar,38.83111820887628,29.99112661549525,0.0
Kütahya,Emet,39.32469872113378,29.330828104163977,0.0
Kütahya,Gediz,38.95028220739621,29.3950878892225,0.0
Kütahya,Hisarcık,39.200596723493966,29.18061620733417,0.3
Kütahya,Merkez,39.41431914168413,30.058179936765583,0.0
Kütahya,Pazarlar,38.93083301873256,29.0707230067182,0.0
Kütahya,Şaphane,38.94075098054272,29.15393100459662,3.58
Kütahya,Simav,39.20476557325831,28.930882658768187,2.81
Kütahya,Tavşanlı,39.563194529869726,29.447977252977708,0.0
Malatya,Akçadağ,38.35524229056682,37.93119431747869,0.0
Malatya,Arapkir,38.96181195935843,38.48807456296204,0.0
Malatya,Arguvan,38.84986408530041,38.2857051146808,0.0
Malatya,Battalgazi,38.420846230359935,38.46679162949347,0.0
Malatya,Darende,38.57286880461476,37.5382087613363,0.0
Malatya,Doğanşehir,38.004506787240615,37.893164596364,0.0
Malatya,Doğanyol,38.26085968126248,39.032141934884486,0.0
Malatya,Hekimhan,38.78035248926875,37.95128721123495,0.0
Malatya,Kale,38.34974907243714,38.767691232712565,0.0
Malatya,Kuluncak,38.86313755806931,37.68729950346901,0.0
Malatya,Merkez,38.3184971952432,38.44440313253644,0.0
Malatya,Pötürge,38.1843652278076,38.83577327257186,0.0
Malatya,Yazıhan,38.561741391766574,38.193982780925616,0.0
Malatya,Yeşilyurt,38.21792874055504,38.175075442753474,0.0
Manisa,Ahmetli,38.524368686810256,27.911618670120983,0.0
Manisa,Akhisar,38.96036564707824,27.88654442339508,18.94
Manisa,Alaşehir,38.32673241395126,28.53896812875769,8.58
Manisa,Demirci,38.93423047348449,28.660218026866648,84.57
Manisa,Gölmarmara,38.69794540632812,27.98171618266756,0.0
Manisa,Gördes,38.93364467673309,28.285064979391432,0.0
Manisa,Kırkağaç,39.18088382760613,27.79327336795698,1.21
Manisa,Köprübaşı,38.73699562193105,28.352091940616507,0.0
Manisa,Kula,38.54330420006076,28.66972729961144,0.0
Manisa,Merkez,38.71060284103788,27.40009429364583,0.0
Manisa,Salihli,38.54121156209489,28.206730719712525,0.07
Manisa,Sarıgöl,38.22687803124673,28.764900254208925,0.0
Manisa,Saruhanlı,38.78219029813072,27.635533750654687,0.0
Manisa,Selendi,38.76296942839616,28.85793820035384,0.0
Manisa,Soma,39.23535062803184,27.59010883415992,0.0
Manisa,Turgutlu,38.49454075013268,27.772654140700567,0.0
Mardin,Dargeçit,37.59892431523612,41.7878578067588,0.0
Mardin,Derik,37.34625906041294,40.17238488492183,0.0
Mardin,Kızıltepe,37.14421679204911,40.49808418746397,0.0
Mardin,Mazıdağı,37.498282302026446,40.42914052522698,0.0
Mardin,Merkez,37.28546789729628,40.91295750834781,0.0
Mardin,Midyat,37.43933841392414,41.46039500586316,0.0
Mardin,Nusaybin,37.2142241261676,41.49790160201557,0.0
Mardin,Ömerli,37.40468244887072,41.085700460278765,0.0
Mardin,Savur,37.62015056096718,40.84575577755323,0.0
Mardin,Yeşilli,37.40003393683931,40.90782057130607,0.0
Mersin,Anamur,36.25212330657917,32.7938936555715,25.83
Mersin,Aydıncık,36.21515182520446,33.30417106119087,34.36
Mersin,Bozyazı,36.21449129407862,33.05500382055722,16.98
Mersin,Çamlıyayla,37.16286333664461,34.56423315043107,11.77
Mersin,Erdemli,36.82097454787196,34.103664429792346,0.0
Mersin,Gülnar,36.35867141263686,33.35835893875683,0.31
Mersin,Merkez,36.959120808114974,34.426262992314086,18.4
Mersin,Mut,36.71847838339097,33.39806491811672,0.0
Mersin,Silifke,36.5823700740844,33.81624708981756,0.0
Mersin,Tarsus,37.05973893131646,34.81905843349686,0.0
Mugla,Bodrum,37.058254943713486,27.488792876906977,38.04
Mugla,Dalaman,36.84324447726233,28.944802880130904,28.21
Mugla,Datça,36.74167091298765,27.679896518349743,0.84
Mugla,Fethiye,36.711272275022594,29.32294560257271,1.33
Mugla,Kavaklıdere,37.47303100559186,28.35724963915983,52.15
Mugla,Köyceğiz,36.99849654723355,28.72618382532384,62.67
Mugla,Marmaris,36.81415331005424,28.18730955408217,58.46
Mugla,Merkez,37.22794935067296,28.43791915901753,3.15
Mugla,Milas,37.28438891645066,27.731959788039852,0.0
Mugla,Ortaca,36.78387375955048,28.70036755283864,72.01
Mugla,Ula,37.07318447056209,28.450613734854347,61.54
Mugla,Yatağan,37.35391340329978,28.126101751686445,1.59
Mus,Bulanık,39.07172371311799,42.19975746875146,0.0
Mus,Hasköy,38.670405076211416,41.85750068830133,0.0
Mus,Korkut,38.81947823534126,41.948815172293536,0.0
Mus,Malazgirt,39.210883868372136,42.505286479747774,0.0
Mus,Merkez,38.848864699962455,41.54248649743613,0.0
Mus,Varto,39.19038117011303,41.48454601706278,0.0
Nevsehir,Acıgöl,38.541768049548125,34.49634744824882,0.0
Nevsehir,Avanos,38.93468155878,34.87396028557973,0.0
Nevsehir,Derinkuyu,38.43244246616864,34.75116566588555,0.0
Nevsehir,Gülşehir,38.7621590609788,34.46834194744593,0.0
Nevsehir,Hacıbektaş,39.01078281205235,34.652287120787754,0.0
Nevsehir,Kozaklı,39.28302436807687,34.77845703304824,0.0
Nevsehir,Merkez,38.61920133473421,34.72063294290639,0.0
Nevsehir,Ürgüp,38.633439157785176,34.94941317984889,0.0
Nigde,Altunhisar,38.058824828431945,34.35938340716272,0.0
Nigde,Bor,37.8558641745533,34.566635493106155,0.0
Nigde,Çamardı,37.97380558292353,35.107384608476146,0.0
Nigde,Çiftlik,38.28881585097615,34.48722027727221,0.0
Nigde,Merkez,38.16510290174786,34.81151311059958,0.0
Nigde,Ulukışla,37.56177279359066,34.6464955695093,0.0
Ordu,Akkuş,40.81664535166597,36.98346289530018,46.73
Ordu,Aybastı,40.65476070261048,37.44529381980585,62.22
Ordu,Çamaş,40.88326297568416,37.55283054843706,80.12
Ordu,Çaybaşı,40.97452990588806,37.04444376790641,68.1
Ordu,Fatsa,40.96791883549378,37.532272581498496,52.67
Ordu,Gölköy,40.67646914367819,37.6594423863165,80.36
Ordu,Gülyalı,40.93277742058096,38.05069604369467,60.77
Ordu,Gürgentepe,40.81578965925254,37.60450522254151,59.38
Ordu,İkizce,41.0490350817516,37.06681854018471,10.3
Ordu,Kabadüz,40.72532424313874,37.98332470341959,68.53
Ordu,Kabataş,40.78862001970443,37.48447494597251,75.65
Ordu,Korgan,40.7794622768025,37.36957541176251,18.53
Ordu,Kumru,40.83618003785275,37.27488190564304,77.53
Ordu,Merkez,40.9191066875618,37.8868144809844,73.35
Ordu,Mesudiye,40.51999568707511,37.86182981612889,0.0
Ordu,Perşembe,41.03273746981066,37.72484398410951,79.58
Ordu,Ulubey,40.82093963342631,37.777923817452894,76.63
Ordu,Ünye,41.02634864227907,37.27054967737633,68.21
Osmaniye,Bahçe,37.23983950310407,36.60046325639051,74.28
Osmaniye,Düziçi,37.28654132024345,36.43251423726141,7.47
Osmaniye,Hasanbeyli,37.14032481257178,36.51093136662881,0.0
Osmaniye,Kadirli,37.3551504929279,36.12098466181666,1.99
Osmaniye,Merkez,37.05551763654233,36.34890519517917,77.75
Osmaniye,Sumbas,37.42870364047124,36.01035273738327,0.0
Osmaniye,Toprakkale,37.12934916780117,36.16092986561621,0.0
Rize,Ardeşen,41.03269916020601,41.12437343473351,52.21
Rize,Çamlıhemşin,40.88486827195794,40.97096307968468,84.49
Rize,Çayeli,40.95082456597754,40.76421443475466,71.12
Rize,Derepazarı,41.006538741709605,40.44962918337612,70.9
Rize,Fındıklı,41.1561630903633,41.23699064852412,81.44
Rize,Güneysu,40.94743863853946,40.64180340669834,52.44
Rize,Hemşin,41.00081412695676,40.86974401737566,85.0
Rize,İkizdere,40.70986896964304,40.6432959422176,1.58
Rize,İyidere,40.992305244610776,40.3948861809386,85.11
Rize,Kalkandere,40.91725459142249,40.48595569515576,78.42
Rize,Merkez,40.94759873398601,40.59072291408524,38.6
Rize,Pazar,41.138655638913264,40.86774455782292,60.14
Sakarya,Akyazı,40.64221327536436,30.75022877366203,33.04
Sakarya,Ferizli,40.987122977609474,30.543968884116477,3.6
Sakarya,Geyve,40.50950100011149,30.320781139157702,1.36
Sakarya,Hendek,40.80408160828496,30.77690279853078,95.8
Sakarya,Karapürçek,40.631471591484285,30.5765192433276,4.94
Sakarya,Karasu,41.03826894855067,30.67113438083818,29.16
Sakarya,Kaynarca,41.041056133466,30.40208320253412,95.81
Sakarya,Kocaali,40.98274115313361,30.907510553991465,57.36
Sakarya,Merkez,40.79944278747429,30.44335533786952,0.79
Sakarya,Pamukova,40.5501814620833,30.122145506931325,80.63
Sakarya,Sapanca,40.69096467067413,30.343657807553264,8.86
Sakarya,Söğütlü,40.899201235359946,30.52582052725865,9.38
Sakarya,Taraklı,40.44273966729181,30.5463304426355,0.0
Samsun,Alaçam,41.496867540926736,35.57352227439552,73.17
Samsun,Asarcik,41.002391334959775,36.33018702699551,19.47
Samsun,Ayvacık,40.9527212391134,36.55084738048287,18.59
Samsun,Bafra,41.45843073997171,35.84297774096366,0.0
Samsun,Çarşamba,41.2070958419634,36.672064951083456,4.41
Samsun,Havza,41.065262611485664,35.73688768237795,0.33
Samsun,Kavak,41.094444801657055,36.041206848943474,36.25
Samsun,Ladik,40.92042159336108,35.97519642033695,0.0
Samsun,Merkez,41.24089170573669,36.21798746447706,0.31
Samsun,Ondokuz Mayıs,41.4631779767352,36.04916861563674,0.05
Samsun,Salıpazarı,40.9953588443449,36.80615724721613,93.1
Samsun,Tekkeköy,41.13422643428089,36.46762736269903,6.16
Samsun,Terme,41.18337382730494,36.94177807250468,75.07
Samsun,Vezirköprü,41.18413486127703,35.305996892155704,1.09
Samsun,Yakakent,41.60824045476733,35.52349129842116,85.51
Sanliurfa,Akçakale,36.790033300138894,38.80467899865793,0.0
Sanliurfa,Birecik,37.04569855558855,38.09083006077833,0.0
Sanliurfa,Bozova,37.328797707188535,38.43191234368574,0.0
Sanliurfa,Ceylanpınar,36.90663359122141,39.75490125007113,0.0
Sanliurfa,Halfeti,37.25950810941028,37.9998594598859,0.0
Sanliurfa,Harran,36.795807691750085,39.177680960933685,0.0
Sanliurfa,Hilvan,37.52538488874076,38.95811234262418,0.0
Sanliurfa,Merkez,37.124045158012194,38.948143456860734,0.0
Sanliurfa,Siverek,37.657249449750985,39.40951406817269,0.0
Sanliurfa,Suruç,36.97097013001508,38.35611810684249,0.0
Sanliurfa,Viranşehir,37.22598038446956,39.76067579023548,0.0
Siirt,Aydınlar,37.971041411337815,42.05993917811039,0.04
Siirt,Baykan,38.09533418499797,41.81168091576177,0.0
Siirt,Eruh,37.81357370447248,42.146646286456914,0.0
Siirt,Kurtalan,37.91241507424272,41.66608756775532,0.0
Siirt,Merkez,37.95314949294181,41.906425386809246,0.0
Siirt,Pervari,37.94292607473897,42.67847416263853,0.0
Siirt,Şirvan,38.08320930148758,42.23427877903502,6.35
Sinop,Ayancık,41.81897416573053,34.59876652549404,98.72
Sinop,Boyabat,41.49219566299466,34.71507809707048,4.69
Sinop,Dikmen,41.58561147420242,35.307410891009795,80.63
Sinop,Durağan,41.41766675487269,35.1769408114179,18.79
Sinop,Erfelek,41.86881086024816,34.864554176861795,31.23
Sinop,Gerze,41.72286324584045,35.084139077264844,7.22
Sinop,Merkez,41.91724935642361,35.00089746742351,2.02
Sinop,Saraydüzü,41.2869775809569,34.80056066694124,35.32
Sinop,Türkeli,41.862139690479374,34.32525598115441,95.12
Sirnak,Beytüşşebap,37.59228469650045,43.17569501385973,0.15
Sirnak,Cizre,37.2959590489286,42.35826345520993,0.0
Sirnak,Güçlükonak,37.57931508233701,42.05518755042234,0.0
Sirnak,İdil,37.34645455967279,41.964174846968895,0.0
Sirnak,Merkez,37.61767973021793,42.550815050258194,3.09
Sirnak,Silopi,37.29046472836663,42.59482106422996,0.0
Sirnak,Uludere,37.40702167712986,43.04430397624668,0.17
Sivas,Akıncılar,40.04477860875657,38.35127803297435,0.15
Sivas,Altınyayla,39.27523027806882,36.8053801315461,0.0
Sivas,Divriği,39.36550802214359,38.091915675771,0.0
Sivas,Doğanşar,40.1961643475479,37.5449438025214,7.63
Sivas,Gemerek,39.28277031858797,36.09103131952365,0.0
Sivas,Gölova,40.0257673720079,38.61329440564738,3.4
Sivas,Gürün,38.80893685015967,37.177812289097695,0.0
Sivas,Hafik,39.90546941567713,37.372434687369385,0.0
Sivas,İmranlı,39.81527046789713,38.21103747302748,0.0
Sivas,Kangal,39.2143187845931,37.41303147566127,0.0
Sivas,Koyulhisar,40.2896172866798,37.85805570825536,0.0
Sivas,Merkez,39.68938257185719,36.96957371599611,0.0
Sivas,Şarkışla,39.41346687030597,36.39522144169571,0.0
Sivas,Suşehri,40.16365948730641,38.128824547479375,0.0
Sivas,Ulaş,39.45697465047859,37.06599526246618,0.0
Sivas,Yıldızeli,39.87268604255335,36.52906277251842,0.0
Sivas,Zara,39.821508943715465,37.78094888198774,0.0
Tekirdag,Çerkezköy,41.36218859443755,28.0636631975076,55.42
Tekirdag,Çorlu,41.21219448090689,27.85810225926478,0.0
Tekirdag,Hayrabolu,41.20405917197809,27.136302833723487,0.0
Tekirdag,Malkara,40.923212216627086,26.947942251955048,0.59
Tekirdag,Marmaraereğlisi,41.05875738982965,27.982553588756865,0.0
Tekirdag,Merkez,41.00866971540696,27.41464787561189,0.0
Tekirdag,Muratlı,41.18835155409485,27.579974191114005,0.0
Tekirdag,Saray,41.46558826530275,27.94724249922516,79.04
Tekirdag,Şarköy,40.7295389344694,27.19341121006117,43.8
Tokat,Almus,40.27481433656717,37.06789263971137,0.0
Tokat,Artova,40.115206290110336,36.28197217038276,0.0
Tokat,Başçiftlik,40.50646221196587,37.11532408971276,18.8
Tokat,Erbaa,40.69138733328746,36.61251741627739,0.0
Tokat,Merkez,40.270807664858125,36.598993839067965,0.85
Tokat,Niksar,40.57753055971593,36.98339967670604,15.52
Tokat,Pazar,40.22352109160386,36.28388792615512,13.05
Tokat,Reşadiye,40.43395277804408,37.37462951043714,0.0
Tokat,Sulusaray,40.00629010350588,36.08410253482975,0.46
Tokat,Turhal,40.39494195525026,36.16335278576464,1.42
Tokat,Yeşilyurt,40.00757327498269,36.306220944164416,0.0
Tokat,Zile,40.2109502334832,35.84399950101877,0.04
Trabzon,Akçaabat,40.966195136572736,39.49661995964536,1.64
Trabzon,Araklı,40.74171110235967,39.95122285423503,73.17
Trabzon,Arsin,40.8486752685711,39.90652016003077,63.57
Trabzon,Beşikdüzü,41.01411258218808,39.1956108663592,13.79
Trabzon,Çarşıbaşı,41.03850031601526,39.367979721589,70.14
Trabzon,Çaykara,40.62351543462516,40.28682732210406,50.56
Trabzon,Dernekpazarı,40.807912458293366,40.27548461371839,22.35
Trabzon,Düzköy,40.8657974292224,39.39948923980311,3.78
Trabzon,Hayrat,40.784123755248,40.42368983233944,71.19
Trabzon,Köprübaşı,40.7158219370651,40.12030560565853,75.46
Trabzon,Maçka,40.726290757923685,39.55884940280271,54.75
Trabzon,Merkez,40.94597633192017,39.69589262032642,39.3
Trabzon,Of,40.904219752496886,40.29458040947439,71.3
Trabzon,Şalpazarı,40.88077003784214,39.15462296839721,15.19
Trabzon,Sürmene,40.8144249036688,40.08264171996844,75.3
Trabzon,Tonya,40.83909154937808,39.256816758407936,63.05
Trabzon,Vakfıkebir,40.97671094012157,39.30445133493634,8.04
Trabzon,Yomra,40.84813670804133,39.81373058297265,29.31
Tunceli,Çemişgezek,39.048009123310464,38.90555832125201,0.0
Tunceli,Hozat,39.12936295978324,39.23939469743994,0.0
Tunceli,Mazgirt,38.95243127976648,39.74107010571065,0.0
Tunceli,Merkez,39.151414275104976,39.63025780890647,0.0
Tunceli,Nazımiye,39.21886483826024,39.921955564456,0.0
Tunceli,Ovacık,39.34689087275989,39.2921811567408,0.17
Tunceli,Pertek,38.9008410900956,39.36346813439545,0.0
Tunceli,Pülümür,39.438048107680814,40.08199182734104,0.0
Usak,Banaz,38.733687667706455,29.713880704739516,22.89
Usak,Eşme,38.4411749460799,29.01297462246233,0.0
Usak,Karahallı,38.31152423181298,29.52512783806585,0.0
Usak,Merkez,38.6490921156764,29.34376958141318,0.0
Usak,Sivaslı,38.48799961769668,29.62429589083817,2.67
Usak,Ulubey,38.38043913282015,29.29320800582729,0.0
Van,Bahçesaray,38.09510137417775,42.96506096094262,0.0
Van,Başkale,37.95982259135484,44.21001881964643,0.0
Van,Çaldıran,39.13011626486243,43.9781344956908,0.0
Van,Çatak,37.97529280165084,43.26130436034989,0.0
Van,Edremit,38.466876390161154,43.22500307906965,0.0
Van,Erciş,39.13343613019066,43.33708183582761,0.0
Van,Gevaş,38.331177010572,42.99105257105601,0.0
Van,Gürpınar,38.11149940676165,43.74847844577759,0.0
Van,Merkez,38.676111252706,43.45588160723279,0.0
Van,Muradiye,39.01162291009511,43.71752063451966,0.0
Van,Özalp,38.70682275338305,44.0456421984975,0.0
Van,Saray,38.45511988739085,44.251931888228974,0.0
Yalova,Altınova,40.62420967182785,29.40970192173894,0.0
Yalova,Armutlu,40.52696566897169,28.92275768097515,96.83
Yalova,Çiftlikköy,40.638077629343314,29.356294223859397,0.0
Yalova,Çınarcık,40.60436369347328,29.049153507375323,86.88
Yalova,Merkez,40.60529674036217,29.246105917288247,34.89
Yalova,Termal,40.60480522349432,29.157469424105688,96.12
Yozgat,Akdağmadeni,39.70386099009415,35.839719741872095,2.14
Yozgat,Aydıncık,40.139109955858125,35.288987028534024,0.42
Yozgat,Boğazlıyan,39.23725292914053,35.22889398859961,0.0
Yozgat,Çandır,39.27233794453658,35.500141226144954,0.0
Yozgat,Çayıralan,39.39208700502545,35.717235597252774,0.23
Yozgat,Çekerek,40.01424294432496,35.50978639831244,0.0
Yozgat,Kadışehri,39.98410959325272,35.820640566637564,0.0
Yozgat,Merkez,39.82213228385357,34.81940564730009,0.0
Yozgat,Saraykent,39.792308774678254,35.585433071655814,0.0
Yozgat,Sarıkaya,39.51404415930692,35.411769912765855,0.0
Yozgat,Şefaatli,39.53077616504328,34.78625158290032,0.0
Yozgat,Sorgun,39.80444376008891,35.2467275508859,0.0
Yozgat,Yenifakılı,39.27331500844337,34.99641529910032,0.0
Yozgat,Yerköy,39.78409936260028,34.3961335021386,0.0
Zinguldak,Alaplı,41.13385037039894,31.425911286625745,46.32
Zinguldak,Çaycuma,41.40593839027443,32.089097580424834,0.4
Zinguldak,Devrek,41.144889510910446,31.94052424619496,81.77
Zinguldak,Ereğli,41.21259758651194,31.605761144531375,11.58
Zinguldak,Gökçebey,41.26979550478919,32.191916297816206,86.44
Zinguldak,Merkez,41.38700981776457,31.863191541241974,51.56
