province_name,district_name,lat,lon,avg_temp_10yr,avg_precip_10yr,temp_std_10yr,precip_std_10yr,temp_min_10yr,temp_max_10yr
Adana,Aladağ,37.66664161425269,35.387781159274844,16.739615384615384,0.0,0.3626502726454723,0.0,16.216153846153848,17.34769230769231
Adana,Ceyhan,37.01188762408269,35.768197774868256,19.804076923076924,0.0,0.3788803273232987,0.0,19.26153846153846,20.400769230769228
Adana,Feke,37.87149501654729,35.82175412166473,10.716615384615384,0.0,0.4393280087551804,0.0,10.156153846153845,11.414615384615384
Adana,Karaisali,37.25914702378393,35.14288805669741,12.239538461538462,0.0,0.41761181954198856,0.0,11.707692307692307,12.945384615384615
Adana,Karataş,36.6759794496345,35.229132124491095,21.450076923076924,0.0,0.33200513489846545,0.0,21.10230769230769,22.021538461538462
Adana,Kozan,37.53681464962676,35.840943226510305,16.739615384615384,0.0,0.3626502726454723,0.0,16.216153846153848,17.34769230769231
Adana,Pozantı,37.54648277891881,34.98430156975578,12.239538461538462,0.0,0.41761181954198856,0.0,11.707692307692307,12.945384615384615
Adana,Saimbeyli,37.98900752876872,36.13436444012252,10.406,0.0,0.42618189299542003,0.0,9.826923076923077,11.113846153846152
Adana,Seyhan,36.91276285694181,35.17898024007434,19.747307692307693,0.0,0.36655606185490563,0.0,19.256923076923076,20.383076923076924
Adana,Tufanbeyli,38.27092830135996,36.2612424860836,8.506923076923076,0.0,0.4762149416087653,0.0,7.900769230769232,9.386153846153846
Adana,Yumurtalık,36.710570748576025,35.61362903076997,21.224,0.0,0.31879968834461786,0.0,20.861538461538462,21.78923076923077
Adana,Yüreğir,36.9702209447011,35.42196564547398,19.804076923076924,0.0,0.3788803273232987,0.0,19.26153846153846,20.400769230769228
Adana,İmamoğlu,37.259450755722085,35.60816661152585,16.739615384615384,0.0,0.3626502726454723,0.0,16.216153846153848,17.34769230769231
Adiyaman,Besni,37.58098423464698,37.9021105320502,17.38576923076923,0.0,0.3804321654101178,0.0,16.89,17.93307692307692
Adiyaman,Gerger,38.02434275066536,38.99318871698758,13.909692307692307,0.0,0.43160026676261387,0.0,13.356153846153846,14.593076923076923
Adiyaman,Gölbaşı,37.69827262449037,37.59807051058772,15.63653846153846,0.0,0.38148180755280314,0.0,15.093846153846155,16.186153846153847
Adiyaman,Kahta,37.79951359683125,38.694339858723005,13.909692307692307,0.0,0.43160026676261387,0.0,13.356153846153846,14.593076923076923
Adiyaman,Merkez,37.70841704317855,38.261284947937625,17.38576923076923,0.0,0.3804321654101178,0.0,16.89,17.93307692307692
Adiyaman,Samsat,37.56570577274376,38.49118352181627,17.808384615384618,0.0,0.39877548434739857,0.0,17.216923076923077,18.402307692307694
Adiyaman,Sincik,38.040170204711785,38.55041496078256,13.909692307692307,0.0,0.43160026676261387,0.0,13.356153846153846,14.593076923076923
Adiyaman,Tut,37.79475172793583,37.9227827564413,11.455461538461538,0.0,0.42849252600123794,0.0,10.973846153846154,12.129999999999999
Adiyaman,Çelikhan,38.05858677551078,38.32101454195479,11.455461538461538,0.0,0.42849252600123794,0.0,10.973846153846154,12.129999999999999
Afyon,Bayat,39.025107370010666,30.925424100508373,10.588384615384616,0.0,0.6373019487126997,0.0,9.506923076923076,11.572307692307692
Afyon,Başmakçı,37.867487273557046,30.009480465472784,13.137692307692308,0.0,0.5328454375848874,0.0,12.118461538461538,13.987692307692308
Afyon,Bolvadin,38.77491246418936,31.219356309714343,11.632307692307693,0.0,0.6220968338956027,0.0,10.606923076923076,12.586923076923076
Afyon,Dazkırı,37.91931503587757,29.78324080300375,13.137692307692308,0.0,0.5328454375848874,0.0,12.118461538461538,13.987692307692308
Afyon,Dinar,38.13963427758678,30.25053730612807,13.137692307692308,0.0,0.5328454375848874,0.0,12.118461538461538,13.987692307692308
Afyon,Emirdağ,39.02826857126863,31.340214629467827,11.632307692307693,0.0,0.6220968338956027,0.0,10.606923076923076,12.586923076923076
Afyon,Evciler,38.03260230243983,29.87117521274364,13.137692307692308,0.0,0.5328454375848874,0.0,12.118461538461538,13.987692307692308
Afyon,Hocalar,38.580242283688726,29.949283400245346,11.443076923076923,0.0,0.5874811676028163,0.0,10.34,12.357692307692307
Afyon,Kızılören,38.26199409344205,30.15600167051217,11.443076923076923,0.0,0.5874811676028163,0.0,10.34,12.357692307692307
Afyon,Merkez,38.7853757954168,30.536704399875862,10.588384615384616,0.0,0.6373019487126997,0.0,9.506923076923076,11.572307692307692
Afyon,Sandıklı,38.45140090878305,30.180279604536608,11.443076923076923,0.0,0.5874811676028163,0.0,10.34,12.357692307692307
Afyon,Sincanlı,38.74613600480689,30.254204005116105,11.443076923076923,0.0,0.5874811676028163,0.0,10.34,12.357692307692307
Afyon,Sultandağı,38.607430862405145,31.414961415445124,11.299076923076923,0.0,0.6000675833074879,0.0,10.335384615384616,12.23076923076923
Afyon,Çay,38.52005533784735,30.98298966884557,11.299076923076923,0.0,0.6000675833074879,0.0,10.335384615384616,12.23076923076923
Afyon,Çobanlar,38.68505194274979,30.8276650025872,11.100923076923078,0.0,0.6072150890463353,0.0,10.012307692307692,12.05
Afyon,İhsaniye,39.02955785163041,30.469943449400898,10.588384615384616,0.0,0.6373019487126997,0.0,9.506923076923076,11.572307692307692
Afyon,İscehisar,38.92538934713586,30.78299356919825,10.588384615384616,0.0,0.6373019487126997,0.0,9.506923076923076,11.572307692307692
Afyon,Şuhut,38.45333192690092,30.60005269792468,11.100923076923078,0.0,0.6072150890463353,0.0,10.012307692307692,12.05
Agri,Diyadin,39.47784231622719,43.61747733837812,7.122692307692307,0.0,0.5620035832745305,0.0,5.9715384615384615,7.894615384615384
Agri,Doğubeyazıt,39.57772620465168,44.0361939897038,7.122692307692307,0.0,0.5620035832745305,0.0,5.9715384615384615,7.894615384615384
Agri,Eleşkirt,39.82510285619879,42.691230264416106,6.1047692307692305,0.0,0.700058117245538,0.0,4.671538461538462,7.063076923076924
Agri,Hamur,39.50133553495088,43.08810174876008,6.332769230769231,0.0,0.6654654068830729,0.0,5.067692307692307,7.26
Agri,Merkez,39.81191794435278,43.17243541088944,6.893307692307692,0.0,0.704550630585563,0.0,5.426153846153847,7.7869230769230775
Agri,Patnos,39.21661251611671,42.91331429708272,9.91876923076923,0.0,0.6686945685703618,0.0,8.704615384615384,10.996153846153845
Agri,Taşlıçay,39.58959087812761,43.38477277992072,6.332769230769231,0.0,0.6654654068830729,0.0,5.067692307692307,7.26
Agri,Tutak,39.50821002149996,42.72018174758034,8.159846153846155,0.0,0.7276425056592538,0.0,6.732307692307693,9.181538461538462
Aksaray,Ağaçören,38.65139432761589,33.840663178323666,12.95130769230769,0.0,0.5339685627782814,0.0,12.36153846153846,13.98923076923077
Aksaray,Eskil,38.21935992680877,33.422025001399746,12.38623076923077,0.0,0.5334556627459429,0.0,11.733076923076924,13.330769230769231
Aksaray,Gülağaç,38.36295091512031,34.320609678027004,11.483692307692307,0.0,0.5182836946747221,0.0,10.930769230769231,12.433846153846153
Aksaray,Güzelyurt,38.23092826804516,34.32282038107879,10.965461538461538,0.0,0.4828183272687713,0.0,10.44076923076923,11.807692307692308
Aksaray,Merkez,38.284408606216736,33.86553589635082,12.95130769230769,0.0,0.5339685627782814,0.0,12.36153846153846,13.98923076923077
Aksaray,Ortaköy,38.61718846424526,34.13302931631731,11.483692307692307,0.0,0.5182836946747221,0.0,10.930769230769231,12.433846153846153
Aksaray,Sarıyahşi,38.85773237788003,34.037252769632495,12.073692307692308,0.0,0.5420807308304482,0.0,11.50923076923077,13.062307692307693
Amasya,Göynücek,40.35867238447269,35.538375598933854,11.840923076923078,0.0,0.6132659897854134,0.0,11.196153846153846,12.876153846153848
Amasya,Gümüşhacıköy,40.909698544032864,35.21062233479086,10.710461538461539,0.0,0.648312044898762,0.0,9.966923076923077,11.74076923076923
Amasya,Hamamözü,40.76004829681186,35.12070432415393,10.710461538461539,0.0,0.648312044898762,0.0,9.966923076923077,11.74076923076923
Amasya,Merkez,40.608305141592574,35.897315177085645,11.840923076923078,0.0,0.6132659897854134,0.0,11.196153846153846,12.876153846153848
Amasya,Merzifon,40.81784169512704,35.45417707392841,11.096384615384615,0.0,0.6449032515139623,0.0,10.367692307692307,12.146153846153847
Amasya,Suluova,40.77809402019211,35.74691043699064,11.096384615384615,0.0,0.6449032515139623,0.0,10.367692307692307,12.146153846153847
Amasya,Taşova,40.7649725578992,36.28549777548066,11.876615384615384,0.0,0.6192050427314976,0.0,11.225384615384616,12.900769230769232
Ankara,Akyurt,40.06083150250431,33.16136031074967,10.793923076923075,0.0,0.5866895784032375,0.0,10.166153846153845,11.693846153846152
Ankara,Altındağ,39.983391752880046,32.99614538832616,10.793923076923075,0.0,0.5866895784032375,0.0,10.166153846153845,11.693846153846152
Ankara,Ayaş,40.00834633116306,32.291128093221246,11.67453846153846,0.0,0.5672454927513135,0.0,11.088461538461539,12.556153846153848
Ankara,Bala,39.50941940602818,33.09593000372795,11.650384615384615,0.0,0.5614393133403667,0.0,11.033076923076923,12.556923076923077
Ankara,Beypazarı,40.14862692150746,31.92869130103712,11.950384615384616,0.0,0.5824038523273911,0.0,11.316923076923077,12.839230769230769
Ankara,Elmadağ,39.877574921492126,33.30015144879477,10.793923076923075,0.0,0.5866895784032375,0.0,10.166153846153845,11.693846153846152
Ankara,Etimesgut,39.910108075926935,32.62595591899054,11.67453846153846,0.0,0.5672454927513135,0.0,11.088461538461539,12.556153846153848
Ankara,Evren,38.97881429988725,33.822783442093375,12.073692307692308,0.0,0.5420807308304482,0.0,11.50923076923077,13.062307692307693
Ankara,Gölbaşı,39.64262116121575,32.81282201919034,11.650384615384615,0.0,0.5614393133403667,0.0,11.033076923076923,12.556923076923077
Ankara,Güdül,40.214076700269146,32.241936758790615,11.67453846153846,0.0,0.5672454927513135,0.0,11.088461538461539,12.556153846153848
Ankara,Haymana,39.3185192771997,32.59356523139481,11.805076923076921,0.0,0.5426906207004014,0.0,11.214615384615383,12.687692307692307
Ankara,Kalecik,40.15854406716938,33.4550388144467,11.861307692307694,0.0,0.5878276626246383,0.0,11.203846153846154,12.798461538461538
Ankara,Kazan,40.14352830725688,32.649665570911395,11.67453846153846,0.0,0.5672454927513135,0.0,11.088461538461539,12.556153846153848
Ankara,Keçiören,40.05386004648713,32.8264983455073,10.793923076923075,0.0,0.5866895784032375,0.0,10.166153846153845,11.693846153846152
Ankara,Kızılcahamam,40.44366479041166,32.66369741089628,8.673538461538461,0.0,0.6280464687138253,0.0,8.009230769230768,9.563846153846153
Ankara,Mamak,39.8676408733446,33.0102161889436,10.793923076923075,0.0,0.5866895784032375,0.0,10.166153846153845,11.693846153846152
Ankara,Nallıhan,40.1817599533106,31.31642733462549,11.665692307692307,0.0,0.6048339354028175,0.0,10.94,12.566153846153847
Ankara,Polatlı,39.51473840231554,32.16931883763952,12.16376923076923,0.0,0.5578342230280683,0.0,11.45923076923077,13.047692307692309
Ankara,Sincan,39.95395828425514,32.50073789721857,11.67453846153846,0.0,0.5672454927513135,0.0,11.088461538461539,12.556153846153848
Ankara,Yenimahalle,39.88426464534916,32.656541104633305,11.67453846153846,0.0,0.5672454927513135,0.0,11.088461538461539,12.556153846153848
Ankara,Çamlıdere,40.46454722820688,32.44177848760462,8.673538461538461,0.0,0.6280464687138253,0.0,8.009230769230768,9.563846153846153
Ankara,Çankaya,39.87827862418089,32.83355417906906,10.793923076923075,0.0,0.5866895784032375,0.0,10.166153846153845,11.693846153846152
Ankara,Çubuk,40.26714035972231,33.023156870220085,9.277692307692309,0.0,0.6135777962341518,0.0,8.695384615384615,10.157692307692308
Ankara,Şultan Koçhisar,38.95369175839502,33.54901653806994,12.073692307692308,0.0,0.5420807308304482,0.0,11.50923076923077,13.062307692307693
Antalya,Akseki,37.05337569574966,31.84793022353168,12.456538461538461,0.0,0.41268547719791665,0.0,11.777692307692309,13.133076923076924
Antalya,Alanya,36.58755447429034,32.20195394994232,13.28976923076923,0.0,0.39281918222978807,0.0,12.74076923076923,14.006923076923076
Antalya,Elmalı,36.73600392488861,29.888323981747423,14.793307692307692,0.0,0.4140315172838962,0.0,14.033076923076923,15.296923076923076
Antalya,Finike,36.433421276640615,30.030913037455424,14.793307692307692,0.0,0.4140315172838962,0.0,14.033076923076923,15.296923076923076
Antalya,Gazipaşa,36.324611298064006,32.48116908352812,13.28976923076923,0.0,0.39281918222978807,0.0,12.74076923076923,14.006923076923076
Antalya,Gündoğmuş,36.82195222023363,32.07490729446956,12.456538461538461,0.0,0.41268547719791665,0.0,11.777692307692309,13.133076923076924
Antalya,Kale,36.27521195349218,29.91074540485377,14.793307692307692,0.0,0.4140315172838962,0.0,14.033076923076923,15.296923076923076
Antalya,Kaş,36.38076218333008,29.59879260959424,17.102461538461537,0.0,0.3872966031055788,0.0,16.482307692307693,17.58076923076923
Antalya,Kemer,36.53692594043173,30.47499352810554,19.762538461538462,0.0,0.3444232236681679,0.0,19.233076923076922,20.321538461538463
Antalya,Korkuteli,37.052451088405626,30.17773457501594,11.057230769230769,0.0,0.45680582109404483,0.0,10.134615384615385,11.68153846153846
Antalya,Kumluca,36.52403466324749,30.285552538674835,14.793307692307692,0.0,0.4140315172838962,0.0,14.033076923076923,15.296923076923076
Antalya,Manavgat,37.02317371687421,31.369192334049977,17.20092307692308,0.0,0.4111875330998326,0.0,16.426153846153845,17.893076923076926
Antalya,Merkez,36.9786028896458,30.636246147678914,17.901615384615386,0.0,0.43725977907694774,0.0,16.995384615384616,18.58230769230769
Antalya,Serik,37.09598692978779,31.01540241806837,17.20092307692308,0.0,0.4111875330998326,0.0,16.426153846153845,17.893076923076926
Antalya,İbradi,37.14851236840038,31.562885254674363,12.456538461538461,0.0,0.41268547719791665,0.0,11.777692307692309,13.133076923076924
Ardahan,Damal,41.36154681558827,42.84665621766167,5.827230769230769,0.0,0.6410641219219148,0.0,4.838461538461539,6.896153846153846
Ardahan,Göle,40.83735017508182,42.62810865420469,4.712692307692308,0.0,0.5914866381665101,0.0,3.5300000000000002,5.64
Ardahan,Hanak,41.26082553068453,42.77275395307841,6.276076923076923,0.0,0.6033330009697561,0.0,5.116923076923077,7.29
Ardahan,Merkez,41.06458364029876,42.69550814036295,4.712692307692308,0.0,0.5914866381665101,0.0,3.5300000000000002,5.64
Ardahan,Posof,41.46922105274512,42.68965833449572,6.276076923076923,0.0,0.6033330009697561,0.0,5.116923076923077,7.29
Ardahan,Çıldır,41.15692433888374,43.096649142856286,4.444461538461538,0.0,0.6048823707513382,0.0,3.338461538461538,5.451538461538462
Artvin,Ardanuç,41.08845699117457,42.139992832460976,6.7393846153846155,0.0,0.60953132964155,0.0,5.616153846153846,7.722307692307693
Artvin,Arhavi,41.234358992715286,41.354120682807874,6.339384615384615,0.0,0.6084940940213872,0.0,5.382307692307692,7.4399999999999995
Artvin,Borçka,41.38063140246368,41.78063321095909,10.986538461538462,0.0,0.5734147745010084,0.0,10.076923076923077,12.067692307692308
Artvin,Hopa,41.39857627073446,41.47175452158588,16.857999999999997,0.0,0.5583620735044645,0.0,16.252307692307692,17.953846153846154
Artvin,Merkez,41.143545773569386,41.82901130223146,6.7393846153846155,0.0,0.60953132964155,0.0,5.616153846153846,7.722307692307693
Artvin,Murgul,41.19840028946911,41.53577204382872,6.339384615384615,0.0,0.6084940940213872,0.0,5.382307692307692,7.4399999999999995
Artvin,Yusufeli,40.832995051529046,41.580932988190895,6.7393846153846155,0.0,0.60953132964155,0.0,5.616153846153846,7.722307692307693
Artvin,Şavşat,41.32293418726509,42.30327959855192,6.276076923076923,0.0,0.6033330009697561,0.0,5.116923076923077,7.29
Aydin,Bozdoğan,37.666451459721365,28.41058689511569,15.995461538461537,0.0,0.388890167181143,0.0,15.252307692307692,16.55076923076923
Aydin,Buharkent,37.99635726879021,28.79191954779428,15.060692307692307,0.0,0.5013162753088579,0.0,14.04076923076923,15.756153846153847
Aydin,Didim,37.43872549178572,27.306272881738938,18.246615384615385,0.0,0.4057888479075375,0.0,17.526153846153846,18.88153846153846
Aydin,Germencik,37.89078950931182,27.558021996713787,17.42823076923077,0.0,0.4164757827059554,0.0,16.693846153846156,18.155384615384616
Aydin,Karacasu,37.73597394836834,28.677807129558605,14.587153846153845,0.0,0.4443481067515661,0.0,13.68,15.177692307692308
Aydin,Karpuzlu,37.54116061913673,27.81128830620832,18.246615384615385,0.0,0.4057888479075375,0.0,17.526153846153846,18.88153846153846
Aydin,Koçarlı,37.69146602471111,27.692614036388225,18.246615384615385,0.0,0.4057888479075375,0.0,17.526153846153846,18.88153846153846
Aydin,Kuyucak,37.95516177755434,28.64135225677836,15.060692307692307,0.0,0.5013162753088579,0.0,14.04076923076923,15.756153846153847
Aydin,Kuşadası,37.8081319155238,27.31028066834257,17.42823076923077,0.0,0.4164757827059554,0.0,16.693846153846156,18.155384615384616
Aydin,Köşk,37.94265578572072,28.106744916294183,15.998384615384614,0.0,0.4350973728556371,0.0,15.157692307692308,16.673846153846153
Aydin,Merkez,37.86075951401231,27.948734337676992,15.998384615384614,0.0,0.4350973728556371,0.0,15.157692307692308,16.673846153846153
Aydin,Nazilli,37.96473526911057,28.43721646850949,15.998384615384614,0.0,0.4350973728556371,0.0,15.157692307692308,16.673846153846153
Aydin,Sultanhisar,37.92034779543816,28.231412165090305,15.998384615384614,0.0,0.4350973728556371,0.0,15.157692307692308,16.673846153846153
Aydin,Söke,37.647109966191024,27.384176272092937,18.246615384615385,0.0,0.4057888479075375,0.0,17.526153846153846,18.88153846153846
Aydin,Yenipazar,37.7914172872304,28.195918284164623,15.998384615384614,0.0,0.4350973728556371,0.0,15.157692307692308,16.673846153846153
Aydin,Çine,37.61060540977861,28.03408165824508,15.995461538461537,0.0,0.388890167181143,0.0,15.252307692307692,16.55076923076923
Aydin,İncirliova,37.8822378565446,27.74127118760321,17.42823076923077,0.0,0.4164757827059554,0.0,16.693846153846156,18.155384615384616
Balikesir,Ayvalık,39.28466087583266,26.792423761682542,15.716230769230767,0.0,0.4265659474932506,0.0,15.185384615384615,16.423846153846153
Balikesir,Balya,39.78847988083118,27.57191199218876,14.640384615384615,0.0,0.4344704016553147,0.0,14.066153846153846,15.326153846153847
Balikesir,Bandırma,40.27576757832982,27.99025271685525,16.112615384615385,0.0,0.3944720254082887,0.0,15.413076923076924,16.636153846153846
Balikesir,Bigadiç,39.41755345537736,28.221024615823275,14.068692307692308,0.0,0.5044265659348006,0.0,13.392307692307693,14.866923076923078
Balikesir,Burhaniye,39.45920996324414,27.02603342384482,15.716230769230767,0.0,0.4265659474932506,0.0,15.185384615384615,16.423846153846153
Balikesir,Dursunbey,39.51932445034296,28.63440987235684,12.234923076923076,0.0,0.5620003018242019,0.0,11.49076923076923,13.032307692307693
Balikesir,Edremit,39.67256717145215,26.936136500967603,15.716230769230767,0.0,0.4265659474932506,0.0,15.185384615384615,16.423846153846153
Balikesir,Erdek,40.46009732666961,27.85331402063123,16.112615384615385,0.0,0.3944720254082887,0.0,15.413076923076924,16.636153846153846
Balikesir,Gömeç,39.37739701505705,26.91375543929803,15.716230769230767,0.0,0.4265659474932506,0.0,15.185384615384615,16.423846153846153
Balikesir,Gönen,40.11830801899844,27.649882885351342,14.640384615384615,0.0,0.4344704016553147,0.0,14.066153846153846,15.326153846153847
Balikesir,Havran,39.60364307800635,27.20732911027484,14.071692307692308,0.0,0.46329094636760765,0.0,13.443076923076923,14.833846153846155
Balikesir,Kepsut,39.69367118029154,28.24739263244854,14.068692307692308,0.0,0.5044265659348006,0.0,13.392307692307693,14.866923076923078
Balikesir,Manyas,40.04799126617292,27.93686534874738,15.04353846153846,0.0,0.47022847552854163,0.0,14.410769230769231,15.726153846153846
Balikesir,Marmara,40.585202255536935,27.60406049315168,16.123153846153848,0.0,0.3857046882122066,0.0,15.496153846153845,16.754615384615384
Balikesir,Merkez,39.63927431501591,27.86980579209771,14.068692307692308,0.0,0.5044265659348006,0.0,13.392307692307693,14.866923076923078
Balikesir,Savaştepe,39.44011441832669,27.64335058865109,14.071692307692308,0.0,0.46329094636760765,0.0,13.443076923076923,14.833846153846155
Balikesir,Susurluk,39.90541501642517,28.1324834439502,15.04353846153846,0.0,0.47022847552854163,0.0,14.410769230769231,15.726153846153846
Balikesir,Sındırgı,39.222190787600496,28.262462628161344,14.494384615384615,0.0,0.5099544332559242,0.0,13.776923076923076,15.34769230769231
Balikesir,İvrindi,39.52020781909714,27.42219769391825,14.071692307692308,0.0,0.46329094636760765,0.0,13.443076923076923,14.833846153846155
Bartın,Amasra,41.69962438705989,32.39816122067383,12.009076923076922,0.0,0.6578823437152389,0.0,11.253076923076922,13.023076923076925
Bartın,Kurucaşile,41.77097556484541,32.60701297194384,15.63623076923077,0.0,0.4151126761004813,0.0,14.977692307692308,16.182307692307692
Bartın,Merkez,41.51995871820567,32.35264385246661,12.009076923076922,0.0,0.6578823437152389,0.0,11.253076923076922,13.023076923076925
Bartın,Ulus,41.49845072851228,32.62726106699648,12.009076923076922,0.0,0.6578823437152389,0.0,11.253076923076922,13.023076923076925
Batman,Beşiri,37.90578816185334,41.41578840592358,16.702076923076923,0.0,0.5257295797827188,0.0,15.946153846153846,17.543076923076924
Batman,Gercüş,37.646208635038064,41.32341591074757,16.631076923076925,0.0,0.4948820511757687,0.0,16.073076923076922,17.37923076923077
Batman,Hasankeyf,37.7209098769813,41.53311306910117,16.631076923076925,0.0,0.4948820511757687,0.0,16.073076923076922,17.37923076923077
Batman,Kozluk,38.184063339961206,41.47414634410836,16.702076923076923,0.0,0.5257295797827188,0.0,15.946153846153846,17.543076923076924
Batman,Merkez,37.84771126621445,41.21536293987241,16.702076923076923,0.0,0.5257295797827188,0.0,15.946153846153846,17.543076923076924
Batman,Sason,38.3943554434389,41.4281983243224,12.353076923076923,0.0,0.5781867641634321,0.0,11.42153846153846,13.326153846153847
Bayburt,Aydıntepe,40.40667921617266,40.15511795744583,4.144692307692308,0.0,0.6919234878825099,0.0,3.0038461538461543,5.173846153846155
Bayburt,Demirözü,40.08685141603207,39.84707324466413,6.764538461538462,0.0,0.732808441342502,0.0,5.470769230769231,7.763076923076923
Bayburt,Merkez,40.2352630521446,40.31728489231579,6.183999999999999,0.0,0.6828963147695541,0.0,4.941538461538462,7.121538461538462
Bilecik,Bozüyük,39.84992848888314,29.925561875402074,12.113923076923076,0.0,0.6190639420653965,0.0,11.277692307692307,12.958461538461536
Bilecik,Gölpazarı,40.28690173180294,30.32822269585516,11.427538461538461,0.0,0.6390733141468986,0.0,10.700769230769232,12.346153846153847
Bilecik,Merkez,40.1837370283268,29.950545143641925,12.113923076923076,0.0,0.6190639420653965,0.0,11.277692307692307,12.958461538461536
Bilecik,Osmaneli,40.39133380080488,29.984592922439184,12.633230769230769,0.0,0.6183053338477378,0.0,11.878461538461538,13.464615384615383
Bilecik,Pazaryeri,40.02805292032088,29.836646567904165,12.113923076923076,0.0,0.6190639420653965,0.0,11.277692307692307,12.958461538461536
Bilecik,Söğüt,40.03626354266386,30.22700251571993,12.113923076923076,0.0,0.6190639420653965,0.0,11.277692307692307,12.958461538461536
Bilecik,Yenipazar,40.22256868135607,30.562069341546472,11.749461538461539,0.0,0.6367316746554497,0.0,10.920769230769231,12.642307692307693
Bilecik,İnhisar,40.054477028029766,30.43329126784049,11.749461538461539,0.0,0.6367316746554497,0.0,10.920769230769231,12.642307692307693
Bingöl,Adaklı,39.265352976556414,40.59994391949918,6.274153846153846,0.0,0.6001061926626468,0.0,5.296153846153846,7.106923076923077
Bingöl,Genç,38.67999604907165,40.67194136696366,13.295615384615385,0.0,0.5313988647444373,0.0,12.476923076923075,14.17153846153846
Bingöl,Karlıova,39.28813763980579,40.97943516388019,5.568923076923077,0.0,0.5959036364918582,0.0,4.5,6.38
Bingöl,Kiğı,39.280683666876456,40.34613229747032,6.274153846153846,0.0,0.6001061926626468,0.0,5.296153846153846,7.106923076923077
Bingöl,Merkez,38.95653538140768,40.5767001518924,9.260384615384615,0.0,0.5814656773970373,0.0,8.321538461538463,10.108461538461539
Bingöl,Solhan,38.94082309267707,41.08241219833148,9.119307692307691,0.0,0.614567561225761,0.0,8.032307692307693,10.084615384615384
Bingöl,Yayladere,39.21425852114746,40.13903738595207,10.90576923076923,0.0,0.5631293761473276,0.0,10.005384615384616,11.726923076923075
Bingöl,Yedisu,39.45507218598347,40.64170454260995,6.274153846153846,0.0,0.6001061926626468,0.0,5.296153846153846,7.106923076923077
Bitlis,Adilcevaz,38.84378505707948,42.88409050112477,9.91876923076923,0.0,0.6686945685703618,0.0,8.704615384615384,10.996153846153845
Bitlis,Ahlat,38.8080426986623,42.33104847259745,8.697384615384616,0.0,0.7865698131799349,0.0,7.317692307692307,9.965384615384616
Bitlis,Güroymak,38.58513433949118,42.06813446575023,10.140153846153847,0.0,0.6476783805880277,0.0,9.046923076923077,11.219999999999999
Bitlis,Hizan,38.17296920802111,42.57945685936583,10.769769230769231,0.0,0.5774854296285462,0.0,9.840769230769231,11.69
Bitlis,Merkez,38.30170763734375,42.086734338299166,10.140153846153847,0.0,0.6476783805880277,0.0,9.046923076923077,11.219999999999999
Bitlis,Mutki,38.42641169336891,41.781486870676034,10.140153846153847,0.0,0.6476783805880277,0.0,9.046923076923077,11.219999999999999
Bitlis,Tatvan,38.51799967914113,42.51828497560248,9.85576923076923,0.0,0.6671689675750819,0.0,8.734615384615385,11.011538461538462
Bolu,Dörtdivan,40.62557023633769,32.015302273920305,8.989923076923077,0.0,0.6353867314382929,0.0,8.247692307692308,9.89846153846154
Bolu,Gerede,40.67750222558938,32.289424493167886,8.673538461538461,0.0,0.6280464687138253,0.0,8.009230769230768,9.563846153846153
Bolu,Göynük,40.35526736058966,30.831437477465787,11.427538461538461,0.0,0.6390733141468986,0.0,10.700769230769232,12.346153846153847
Bolu,Kıbrıscık,40.45772979471433,31.88822325927627,8.989923076923077,0.0,0.6353867314382929,0.0,8.247692307692308,9.89846153846154
Bolu,Mengen,40.93990906222086,31.990957250994988,11.059461538461537,0.0,0.6589468267220615,0.0,10.353076923076923,12.069230769230769
Bolu,Merkez,40.72073195594632,31.673141976646576,8.989923076923077,0.0,0.6353867314382929,0.0,8.247692307692308,9.89846153846154
Bolu,Mudurnu,40.51828726530535,31.21715317657329,9.995692307692307,0.0,0.6315886068560149,0.0,9.304615384615385,10.943076923076923
Bolu,Seben,40.43696945302324,31.584044874139128,8.989923076923077,0.0,0.6353867314382929,0.0,8.247692307692308,9.89846153846154
Bolu,Yeniçağa,40.80937533872298,31.99219570377489,11.059461538461537,0.0,0.6589468267220615,0.0,10.353076923076923,12.069230769230769
Burdur,Altınyayla,37.04173890420034,29.5441406747095,12.564615384615385,0.0,0.44904061658737293,0.0,11.657692307692308,13.12846153846154
Burdur,Ağlasun,37.631947177072746,30.593209660332683,13.294538461538462,0.0,0.4643184722316029,0.0,12.391538461538461,14.043076923076923
Burdur,Bucak,37.37859072254869,30.58877637477481,13.294538461538462,0.0,0.4643184722316029,0.0,12.391538461538461,14.043076923076923
Burdur,Gölhisar,37.18845572099243,29.52214544826325,12.564615384615385,0.0,0.44904061658737293,0.0,11.657692307692308,13.12846153846154
Burdur,Karamanlı,37.40390578319255,29.85091477079453,12.424923076923076,0.0,0.4890412738423691,0.0,11.463076923076924,13.163846153846153
Burdur,Kemer,37.37395018368012,30.10481044785544,12.424923076923076,0.0,0.4890412738423691,0.0,11.463076923076924,13.163846153846153
Burdur,Merkez,37.62821741796972,30.226163400073304,12.424923076923076,0.0,0.4890412738423691,0.0,11.463076923076924,13.163846153846153
Burdur,Tefenni,37.2930474558543,29.773586929586024,12.424923076923076,0.0,0.4890412738423691,0.0,11.463076923076924,13.163846153846153
Burdur,Yeşilova,37.59087483186178,29.78477474607546,12.424923076923076,0.0,0.4890412738423691,0.0,11.463076923076924,13.163846153846153
Burdur,Çavdır,37.12999289460608,29.71940604797144,11.057230769230769,0.0,0.45680582109404483,0.0,10.134615384615385,11.68153846153846
Burdur,Çeltikçi,37.544296263046704,30.446935392977203,13.294538461538462,0.0,0.4643184722316029,0.0,12.391538461538461,14.043076923076923
Bursa,Büyükorhan,39.74222592946965,28.84076119702224,12.234923076923076,0.0,0.5620003018242019,0.0,11.49076923076923,13.032307692307693
Bursa,Gemlik,40.43308628997939,29.15077065434237,14.389,0.0,0.5081298360744108,0.0,13.765384615384615,15.083076923076923
Bursa,Gürsu,40.26506435710233,29.179195644003936,14.389,0.0,0.5081298360744108,0.0,13.765384615384615,15.083076923076923
Bursa,Harmancık,39.654208919373616,29.110398587566632,11.656538461538462,0.0,0.5976987701638325,0.0,10.855384615384615,12.49076923076923
Bursa,Karacabey,40.2506147447206,28.366260752503567,16.112615384615385,0.0,0.3944720254082887,0.0,15.413076923076924,16.636153846153846
Bursa,Keles,39.89087917800992,29.222322089412927,11.155153846153846,0.0,0.5713332677405429,0.0,10.426923076923078,11.937692307692307
Bursa,Kestel,40.189204642800526,29.25484189721345,11.155153846153846,0.0,0.5713332677405429,0.0,10.426923076923078,11.937692307692307
Bursa,Mudanya,40.329420837948334,28.76125777747832,15.650846153846151,0.0,0.42377897461930353,0.0,14.99,16.235384615384614
Bursa,Mustafa Kemalpaşa,39.975895156889386,28.512530197711737,13.676846153846153,0.0,0.528423461224162,0.0,12.991538461538461,14.400769230769232
Bursa,Nilüfer,40.22204261687022,28.890598728375533,13.676846153846153,0.0,0.528423461224162,0.0,12.991538461538461,14.400769230769232
Bursa,Orhaneli,39.92629502402387,28.916652404445635,13.676846153846153,0.0,0.528423461224162,0.0,12.991538461538461,14.400769230769232
Bursa,Orhangazi,40.46876919313118,29.350114594256453,14.389,0.0,0.5081298360744108,0.0,13.765384615384615,15.083076923076923
Bursa,Osmangazi,40.081832405102254,29.07018973707085,11.155153846153846,0.0,0.5713332677405429,0.0,10.426923076923078,11.937692307692307
Bursa,Yenişehir,40.280319560486575,29.591409411245856,14.389,0.0,0.5081298360744108,0.0,13.765384615384615,15.083076923076923
Bursa,Yıldırım,40.18449058904989,29.08512512822974,11.155153846153846,0.0,0.5713332677405429,0.0,10.426923076923078,11.937692307692307
Bursa,İnegöl,40.0349870607832,29.522770543575465,11.155153846153846,0.0,0.5713332677405429,0.0,10.426923076923078,11.937692307692307
Bursa,İznik,40.489658157507016,29.681730234274216,14.389,0.0,0.5081298360744108,0.0,13.765384615384615,15.083076923076923
Denizli,Acıpayam,37.33933383939545,29.33396507387319,12.531615384615383,0.0,0.4931673117413109,0.0,11.53,13.200769230769232
Denizli,Akköy,37.94103850464806,29.086027955019617,14.447,0.0,0.5266519921556854,0.0,13.391538461538461,15.237692307692308
Denizli,Babadağ,37.77111400029565,28.898037396240795,15.060692307692307,0.0,0.5013162753088579,0.0,14.04076923076923,15.756153846153847
Denizli,Baklan,37.92459317400562,29.54562852887636,14.447,0.0,0.5266519921556854,0.0,13.391538461538461,15.237692307692308
Denizli,Bekilli,38.18746994776894,29.436349283272563,14.447,0.0,0.5266519921556854,0.0,13.391538461538461,15.237692307692308
Denizli,Beyağaç,37.24500268960412,28.9225463583052,17.18169230769231,0.0,0.39881082272280644,0.0,16.42923076923077,17.706153846153846
Denizli,Bozkurt,37.740664155312416,29.541026087153085,12.531615384615383,0.0,0.4931673117413109,0.0,11.53,13.200769230769232
Denizli,Buldan,38.09587092586782,28.876152875964728,15.060692307692307,0.0,0.5013162753088579,0.0,14.04076923076923,15.756153846153847
Denizli,Güney,38.142722497048815,29.063872953575608,14.447,0.0,0.5266519921556854,0.0,13.391538461538461,15.237692307692308
Denizli,Honaz,37.734171775458215,29.329039908395,12.531615384615383,0.0,0.4931673117413109,0.0,11.53,13.200769230769232
Denizli,Kale,37.43766297456657,28.74912834300417,14.587153846153845,0.0,0.4443481067515661,0.0,13.68,15.177692307692308
Denizli,Merkez,37.79372417019381,29.13234088059556,14.447,0.0,0.5266519921556854,0.0,13.391538461538461,15.237692307692308
Denizli,Sarayköy,37.89836458698163,28.912885148733352,15.060692307692307,0.0,0.5013162753088579,0.0,14.04076923076923,15.756153846153847
Denizli,Serinhisar,37.552817219173086,29.28114095769856,12.531615384615383,0.0,0.4931673117413109,0.0,11.53,13.200769230769232
Denizli,Tavas,37.46421051239274,29.01421998591196,14.587153846153845,0.0,0.4443481067515661,0.0,13.68,15.177692307692308
Denizli,Çal,38.02226458442735,29.352446079966764,14.447,0.0,0.5266519921556854,0.0,13.391538461538461,15.237692307692308
Denizli,Çameli,37.01755459625872,29.233624784482405,12.564615384615385,0.0,0.44904061658737293,0.0,11.657692307692308,13.12846153846154
Denizli,Çardak,37.75051688722983,29.69483873165797,13.137692307692308,0.0,0.5328454375848874,0.0,12.118461538461538,13.987692307692308
Denizli,Çivril,38.22227530807361,29.778093222564102,13.137692307692308,0.0,0.5328454375848874,0.0,12.118461538461538,13.987692307692308
Diyarbakir,Bismil,37.89940003676535,40.80332630683015,17.076615384615387,0.0,0.5096604172975328,0.0,16.446153846153848,17.896153846153847
Diyarbakir,Dicle,38.38247131903288,40.11464178817592,13.28323076923077,0.0,0.48982276175732015,0.0,12.564615384615385,14.08
Diyarbakir,Ergani,38.15919877423429,39.75665517759505,16.032384615384615,0.0,0.49369708456537414,0.0,15.430769230769231,16.81692307692308
Diyarbakir,Eğil,38.216758677039486,40.139863645280656,16.032384615384615,0.0,0.49369708456537414,0.0,15.430769230769231,16.81692307692308
Diyarbakir,Hani,38.39594303975099,40.42532191536514,13.295615384615385,0.0,0.5313988647444373,0.0,12.476923076923075,14.17153846153846
Diyarbakir,Hazro,38.26052010485517,40.783690953678175,13.295615384615385,0.0,0.5313988647444373,0.0,12.476923076923075,14.17153846153846
Diyarbakir,Kocaköy,38.25372461152036,40.53853481913383,13.295615384615385,0.0,0.5313988647444373,0.0,12.476923076923075,14.17153846153846
Diyarbakir,Kulp,38.51204705807711,41.141721602528456,12.353076923076923,0.0,0.5781867641634321,0.0,11.42153846153846,13.326153846153847
Diyarbakir,Lice,38.46391255755479,40.68807787732522,13.295615384615385,0.0,0.5313988647444373,0.0,12.476923076923075,14.17153846153846
Diyarbakir,Merkez,38.01102471080012,40.21933226021625,16.032384615384615,0.0,0.49369708456537414,0.0,15.430769230769231,16.81692307692308
Diyarbakir,Silvan,38.16098998503084,40.98316542366104,16.702076923076923,0.0,0.5257295797827188,0.0,15.946153846153846,17.543076923076924
Diyarbakir,Çermik,38.088946634460925,39.4631838299742,14.958000000000002,0.0,0.46292188675983836,0.0,14.336153846153847,15.68923076923077
Diyarbakir,Çüngüş,38.26689127466445,39.30862010536757,13.658076923076925,0.0,0.4735838781861599,0.0,12.98076923076923,14.481538461538461
Diyarbakir,Çınar,37.71254949092104,40.18711926362229,16.235846153846154,0.0,0.47443328593258455,0.0,15.60153846153846,16.96
Düzce,Akçakoca,41.045781575012136,31.20331535525017,13.208153846153845,0.0,0.5613836808109652,0.0,12.62153846153846,14.036153846153846
Düzce,Cumayeri,40.91700443544357,30.97827017838317,13.208153846153845,0.0,0.5613836808109652,0.0,12.62153846153846,14.036153846153846
Düzce,Gölyaka,40.7516337344745,31.044692126761472,13.208153846153845,0.0,0.5613836808109652,0.0,12.62153846153846,14.036153846153846
Düzce,Gümüşova,40.840283603853095,30.9661187582642,13.208153846153845,0.0,0.5613836808109652,0.0,12.62153846153846,14.036153846153846
Düzce,Kaynaşlı,40.73727736076305,31.27653756299408,9.995692307692307,0.0,0.6315886068560149,0.0,9.304615384615385,10.943076923076923
Düzce,Merkez,40.89086619807287,31.26042024552148,13.208153846153845,0.0,0.5613836808109652,0.0,12.62153846153846,14.036153846153846
Düzce,Yığılca,40.96771380981594,31.53337582131661,13.208153846153845,0.0,0.5613836808109652,0.0,12.62153846153846,14.036153846153846
Düzce,Çilimli,40.909439777811,31.09261505945621,13.208153846153845,0.0,0.5613836808109652,0.0,12.62153846153846,14.036153846153846
Edirne,Enez,40.68357304504882,26.20099290352894,16.725692307692306,0.0,0.37819864401221087,0.0,16.191538461538464,17.47769230769231
Edirne,Havsa,41.56683790153863,26.83926846426524,14.63053846153846,0.0,0.5059528671205801,0.0,14.043846153846154,15.743846153846155
Edirne,Keşan,40.79108325519056,26.57759425860664,14.798153846153847,0.0,0.474559652631073,0.0,14.177692307692308,15.853076923076923
Edirne,Lalapaşa,41.90005539069267,26.76384026445056,13.205615384615385,0.0,0.5040190934362742,0.0,12.662307692307694,14.3
Edirne,Meriç,41.18595682542997,26.430161618688413,15.526846153846154,0.0,0.4800856610502846,0.0,14.88923076923077,16.571538461538463
Edirne,Merkez,41.69692646782676,26.58610117041742,14.63053846153846,0.0,0.5059528671205801,0.0,14.043846153846154,15.743846153846155
Edirne,Süleoğlu,41.79834487990778,26.887079499801484,13.205615384615385,0.0,0.5040190934362742,0.0,12.662307692307694,14.3
Edirne,Uzunköprü,41.23960793303152,26.72005901476388,14.798153846153847,0.0,0.474559652631073,0.0,14.177692307692308,15.853076923076923
Edirne,İpsala,40.92567377527445,26.40286467108213,15.526846153846154,0.0,0.4800856610502846,0.0,14.88923076923077,16.571538461538463
Elazığ,Alacakaya,38.50053253041583,39.85328384188119,13.28323076923077,0.0,0.48982276175732015,0.0,12.564615384615385,14.08
Elazığ,Aricak,38.5449679461262,40.13652506034392,13.28323076923077,0.0,0.48982276175732015,0.0,12.564615384615385,14.08
Elazığ,Ağın,38.936466589585024,38.696779330751454,12.392615384615386,0.0,0.4795848248305589,0.0,11.589230769230769,13.27
Elazığ,Baskil,38.56088294896374,38.64336950938127,13.138538461538463,0.0,0.4640098292391082,0.0,12.502307692307692,13.99923076923077
Elazığ,Karakoçan,38.99503194877698,40.11136508785218,10.90576923076923,0.0,0.5631293761473276,0.0,10.005384615384616,11.726923076923075
Elazığ,Keban,38.76359890770932,38.75631265855217,12.392615384615386,0.0,0.4795848248305589,0.0,11.589230769230769,13.27
Elazığ,Kovancılar,38.74977258541836,39.8337368411011,13.28323076923077,0.0,0.48982276175732015,0.0,12.564615384615385,14.08
Elazığ,Maden,38.45017084855697,39.56469161870266,13.658076923076925,0.0,0.4735838781861599,0.0,12.98076923076923,14.481538461538461
Elazığ,Merkez,38.66470595655887,39.20746626635856,13.658076923076925,0.0,0.4735838781861599,0.0,12.98076923076923,14.481538461538461
Elazığ,Palu,38.683891493216144,40.071355126229285,13.28323076923077,0.0,0.48982276175732015,0.0,12.564615384615385,14.08
Elazığ,Sivrice,38.42114193139631,39.12886769213131,13.658076923076925,0.0,0.4735838781861599,0.0,12.98076923076923,14.481538461538461
Erzincan,Kemah,39.60381991193078,39.02807984171855,9.009769230769232,0.0,0.5389191035132195,0.0,8.005384615384616,9.923846153846153
Erzincan,Kemaliye,39.22161286874497,38.597820713163976,12.392615384615386,0.0,0.4795848248305589,0.0,11.589230769230769,13.27
Erzincan,Merkez,39.709070470902674,39.46140511571247,5.720615384615384,0.0,0.5114046865757849,0.0,4.8938461538461535,6.546923076923077
Erzincan,Otlukbeli,39.98395877449107,40.09016155507552,6.764538461538462,0.0,0.732808441342502,0.0,5.470769230769231,7.763076923076923
Erzincan,Refahiye,39.87494518479539,38.75901587965283,7.114538461538461,0.0,0.6641384457191006,0.0,5.960769230769231,8.113076923076923
Erzincan,Tercan,39.70640038835201,40.35403373045475,6.274153846153846,0.0,0.6001061926626468,0.0,5.296153846153846,7.106923076923077
Erzincan,Çayırlı,39.81310673034024,39.93193177634769,6.764538461538462,0.0,0.732808441342502,0.0,5.470769230769231,7.763076923076923
Erzincan,Üzümlü,39.6721184494603,39.83522287347834,7.342692307692308,0.0,0.6015230778193335,0.0,6.300000000000001,8.201538461538462
Erzincan,İliç,39.52388791883921,38.5666157668834,9.009769230769232,0.0,0.5389191035132195,0.0,8.005384615384616,9.923846153846153
Erzurum,Aşkale,39.9151418337412,40.63284600712492,6.183999999999999,0.0,0.6828963147695541,0.0,4.941538461538462,7.121538461538462
Erzurum,Horasan,40.03768146720374,42.20933963497644,6.1047692307692305,0.0,0.700058117245538,0.0,4.671538461538462,7.063076923076924
Erzurum,Hınıs,39.35478320127616,41.71943713681075,6.739692307692307,0.0,0.6742535941841294,0.0,5.433076923076923,7.695384615384616
Erzurum,Ilıca,40.06051189027708,40.96586411948908,4.961230769230769,0.0,0.6317918747847665,0.0,3.786153846153846,5.883846153846155
Erzurum,Karayazı,39.64162796013903,42.1316745234716,6.739692307692307,0.0,0.6742535941841294,0.0,5.433076923076923,7.695384615384616
Erzurum,Karaçoban,39.32701052554236,42.04459222035834,6.739692307692307,0.0,0.6742535941841294,0.0,5.433076923076923,7.695384615384616
Erzurum,Köprüköy,39.93353079704202,41.93307892221484,6.394384615384615,0.0,0.6780119496095042,0.0,5.046153846153846,7.312307692307693
Erzurum,Merkez,40.01693654095463,41.29563965599053,4.961230769230769,0.0,0.6317918747847665,0.0,3.786153846153846,5.883846153846155
Erzurum,Narman,40.30387369662182,41.876795644186885,5.915461538461539,0.0,0.6935078343975711,0.0,4.593076923076923,6.9023076923076925
Erzurum,Oltu,40.54118481933966,41.9584050237501,5.915461538461539,0.0,0.6935078343975711,0.0,4.593076923076923,6.9023076923076925
Erzurum,Olur,40.849712765087446,42.145239424823885,6.7393846153846155,0.0,0.60953132964155,0.0,5.616153846153846,7.722307692307693
Erzurum,Pasinler,40.00175713156368,41.65538810715601,6.394384615384615,0.0,0.6780119496095042,0.0,5.046153846153846,7.312307692307693
Erzurum,Pazaryolu,40.44410649105653,40.65849911750096,4.714538461538462,0.0,0.6269616631196011,0.0,3.6284615384615386,5.747692307692308
Erzurum,Tekman,39.60753193621327,41.42922346825596,5.568923076923077,0.0,0.5959036364918582,0.0,4.5,6.38
Erzurum,Tortum,40.37590453023648,41.39298011700696,4.3298461538461535,0.0,0.6191322637581558,0.0,3.230769230769231,5.286153846153846
Erzurum,Uzundere,40.57650451547059,41.617590577405295,5.915461538461539,0.0,0.6935078343975711,0.0,4.593076923076923,6.9023076923076925
Erzurum,Çat,39.64434908406401,40.92674632515045,6.274153846153846,0.0,0.6001061926626468,0.0,5.296153846153846,7.106923076923077
Erzurum,İspir,40.53903127305815,41.010440924012286,4.3298461538461535,0.0,0.6191322637581558,0.0,3.230769230769231,5.286153846153846
Erzurum,Şenkaya,40.56645745377416,42.348716120422495,5.756846153846154,0.0,0.6643208679904615,0.0,4.374615384615385,6.725384615384616
Eskisehir,Alpu,39.83988312055947,31.07249882759193,11.665692307692307,0.0,0.6048339354028175,0.0,10.94,12.566153846153847
Eskisehir,Beylikova,39.7313679564012,31.28417813418209,11.65023076923077,0.0,0.5983426650115931,0.0,10.785384615384617,12.563076923076922
Eskisehir,Günyüzü,39.4335074401434,31.874961295634886,12.16376923076923,0.0,0.5578342230280683,0.0,11.45923076923077,13.047692307692309
Eskisehir,Han,39.21412280379657,30.78813344360013,10.588384615384616,0.0,0.6373019487126997,0.0,9.506923076923076,11.572307692307692
Eskisehir,Mahmudiye,39.54338396933078,31.02808676975388,11.65023076923077,0.0,0.5983426650115931,0.0,10.785384615384617,12.563076923076922
Eskisehir,Merkez,39.76893817537347,30.586076717492112,11.749461538461539,0.0,0.6367316746554497,0.0,10.920769230769231,12.642307692307693
Eskisehir,Mihalgazi,40.01225192040028,30.615698309231338,11.749461538461539,0.0,0.6367316746554497,0.0,10.920769230769231,12.642307692307693
Eskisehir,Mihalıçcık,39.87486384265517,31.53077474630881,11.665692307692307,0.0,0.6048339354028175,0.0,10.94,12.566153846153847
Eskisehir,Sarıcakaya,40.09445525583495,30.71246732768952,11.749461538461539,0.0,0.6367316746554497,0.0,10.920769230769231,12.642307692307693
Eskisehir,Seyitgazi,39.38052733519961,30.622506372961663,10.997615384615385,0.0,0.6227717359582736,0.0,10.064615384615385,11.882307692307693
Eskisehir,Sivrihisar,39.40050425959527,31.544173630328824,11.65023076923077,0.0,0.5983426650115931,0.0,10.785384615384617,12.563076923076922
Eskisehir,Çifteler,39.32468419460864,31.079276786337147,11.65023076923077,0.0,0.5983426650115931,0.0,10.785384615384617,12.563076923076922
Eskisehir,İnönü,39.78025420854546,30.142653494305435,12.113923076923076,0.0,0.6190639420653965,0.0,11.277692307692307,12.958461538461536
Gaziantep,Araban,37.43818854151698,37.79557725264918,15.63653846153846,0.0,0.38148180755280314,0.0,15.093846153846155,16.186153846153847
Gaziantep,Karkamış,36.819220074033495,37.87956431534849,17.661153846153844,0.0,0.40145335083843664,0.0,17.08153846153846,18.232307692307693
Gaziantep,Nizip,37.005112141082805,37.77127482802177,16.15107692307692,0.0,0.38753612374304613,0.0,15.545384615384616,16.803846153846152
Gaziantep,Nurdağı,37.164145566714105,36.8617928569572,15.619615384615383,0.0,0.38421316575435965,0.0,15.023076923076925,16.303846153846152
Gaziantep,Oğuzeli,36.83216573670972,37.53786597505074,16.15107692307692,0.0,0.38753612374304613,0.0,15.545384615384616,16.803846153846152
Gaziantep,Yavuzeli,37.29676474471246,37.64446922572372,15.63653846153846,0.0,0.38148180755280314,0.0,15.093846153846155,16.186153846153847
Gaziantep,İslahiye,36.978422767614965,36.68767500454448,15.619615384615383,0.0,0.38421316575435965,0.0,15.023076923076925,16.303846153846152
Gaziantep,Şahinbey,36.9848777203703,37.27574881932845,16.15107692307692,0.0,0.38753612374304613,0.0,15.545384615384616,16.803846153846152
Gaziantep,Şehitkamil,37.18123112482387,37.34805276457861,16.15107692307692,0.0,0.38753612374304613,0.0,15.545384615384616,16.803846153846152
Giresun,Alucra,40.38300992492985,38.77761314507524,5.9338461538461535,0.0,0.6691650424546938,0.0,4.8792307692307695,6.989230769230769
Giresun,Bulancak,40.74680260913492,38.19549424051211,6.702692307692308,0.0,0.6956876892304087,0.0,5.67076923076923,7.873846153846154
Giresun,Dereli,40.61246224068168,38.41243565736755,6.702692307692308,0.0,0.6956876892304087,0.0,5.67076923076923,7.873846153846154
Giresun,Doğankent,40.75586227509237,38.94067236805108,14.592692307692307,0.0,0.5646080776909063,0.0,13.981538461538461,15.607692307692307
Giresun,Espiye,40.87274118614263,38.73074961805524,14.592692307692307,0.0,0.5646080776909063,0.0,13.981538461538461,15.607692307692307
Giresun,Eynesil,40.99567250576602,39.10455368617882,13.575153846153848,0.0,0.5638464511840267,0.0,12.933846153846153,14.603076923076923
Giresun,Görele,40.93177975042658,38.85131419626621,14.592692307692307,0.0,0.5646080776909063,0.0,13.981538461538461,15.607692307692307
Giresun,Güce,40.66755698293265,38.80471169514468,5.9338461538461535,0.0,0.6691650424546938,0.0,4.8792307692307695,6.989230769230769
Giresun,Keşap,40.85842518009639,38.55598510480113,14.592692307692307,0.0,0.5646080776909063,0.0,13.981538461538461,15.607692307692307
Giresun,Merkez,40.80986585295606,38.38389637189282,14.784692307692307,0.0,0.5231210954199544,0.0,14.256153846153845,15.745384615384616
Giresun,Piraziz,40.85906200672639,38.12087716720453,14.784692307692307,0.0,0.5231210954199544,0.0,14.256153846153845,15.745384615384616
Giresun,Tirebolu,40.96485667487345,39.00478628619495,14.592692307692307,0.0,0.5646080776909063,0.0,13.981538461538461,15.607692307692307
Giresun,Yağlıdere,40.75016807456692,38.68191738035266,14.592692307692307,0.0,0.5646080776909063,0.0,13.981538461538461,15.607692307692307
Giresun,Çamoluk,40.12768903921624,38.76856973995934,7.114538461538461,0.0,0.6641384457191006,0.0,5.960769230769231,8.113076923076923
Giresun,Çanakçı,40.83607572978308,39.0175361684549,14.592692307692307,0.0,0.5646080776909063,0.0,13.981538461538461,15.607692307692307
Giresun,Şultan Karahisar,40.32327665105763,38.43147719535128,6.702692307692308,0.0,0.6956876892304087,0.0,5.67076923076923,7.873846153846154
Gümüshane,Kelkit,40.04567172458867,39.43654363730852,6.610846153846154,0.0,0.6622499106196341,0.0,5.431538461538461,7.536923076923076
Gümüshane,Köse,40.187759985737785,39.67972403749734,6.610846153846154,0.0,0.6622499106196341,0.0,5.431538461538461,7.536923076923076
Gümüshane,Kürtün,40.626054578382295,39.02396728252227,5.9338461538461535,0.0,0.6691650424546938,0.0,4.8792307692307695,6.989230769230769
Gümüshane,Merkez,40.44555134314321,39.68167430901277,5.973307692307692,0.0,0.7126287373459307,0.0,4.82923076923077,6.990769230769231
Gümüshane,Torul,40.49509076127431,39.21107124554808,5.973307692307692,0.0,0.7126287373459307,0.0,4.82923076923077,6.990769230769231
Gümüshane,Şiran,40.18182623515428,39.09087130593334,6.610846153846154,0.0,0.6622499106196341,0.0,5.431538461538461,7.536923076923076
Hakkari,Merkez,37.51429578294851,43.71555580575328,8.658,0.0,0.5519741868589326,0.0,7.737692307692308,9.541538461538462
Hakkari,Yüksekova,37.55132641531982,44.22545665911954,8.306076923076922,0.0,0.545967640100416,0.0,7.453076923076923,9.186923076923076
Hakkari,Çukurca,37.30133061417332,43.67580408541689,8.658,0.0,0.5519741868589326,0.0,7.737692307692308,9.541538461538462
Hakkari,Şemdinli,37.26871304501031,44.48406706645383,8.306076923076922,0.0,0.545967640100416,0.0,7.453076923076923,9.186923076923076
Hatay,Altınözü,36.077362500758845,36.27738870510159,17.802076923076925,0.0,0.34046822576382524,0.0,17.245384615384616,18.365384615384617
Hatay,Belen,36.463036453427264,36.16665447695214,18.48623076923077,0.0,0.3748697691902198,0.0,17.926923076923078,19.095384615384617
Hatay,Dörtyol,36.821034067384296,36.29969350038391,17.579538461538462,0.0,0.360797239814451,0.0,17.03076923076923,18.14076923076923
Hatay,Erzin,36.95690722263653,36.11736068446133,17.579538461538462,0.0,0.360797239814451,0.0,17.03076923076923,18.14076923076923
Hatay,Hassa,36.76514947160238,36.5061022398374,17.579538461538462,0.0,0.360797239814451,0.0,17.03076923076923,18.14076923076923
Hatay,Kumlu,36.34933386810197,36.54898577987408,18.48623076923077,0.0,0.3748697691902198,0.0,17.926923076923078,19.095384615384617
Hatay,Kırıkhan,36.49365230933255,36.40729317118653,18.48623076923077,0.0,0.3748697691902198,0.0,17.926923076923078,19.095384615384617
Hatay,Merkez,36.24125769712964,36.136416775852645,17.802076923076925,0.0,0.34046822576382524,0.0,17.245384615384616,18.365384615384617
Hatay,Reyhanlı,36.26471058756778,36.476622426828754,18.48623076923077,0.0,0.3748697691902198,0.0,17.926923076923078,19.095384615384617
Hatay,Samandağ,36.17747158776889,35.953866701866424,17.802076923076925,0.0,0.34046822576382524,0.0,17.245384615384616,18.365384615384617
Hatay,Yayladağı,35.93607206824389,36.08127499398871,17.802076923076925,0.0,0.34046822576382524,0.0,17.245384615384616,18.365384615384617
Hatay,İskenderun,36.47368683565411,36.05519234519519,18.48623076923077,0.0,0.3748697691902198,0.0,17.926923076923078,19.095384615384617
Isparta,Aksu,37.71958423413392,31.22850716642059,11.485923076923077,0.0,0.45434422184766926,0.0,10.680769230769231,12.24
Isparta,Atabey,37.95374904227972,30.61521940737025,11.886076923076924,0.0,0.5291336685420303,0.0,10.97923076923077,12.75
Isparta,Eğirdir,37.82205114130962,30.91082815075846,11.886076923076924,0.0,0.5291336685420303,0.0,10.97923076923077,12.75
Isparta,Gelendost,38.07833468362622,31.05491689724457,10.945692307692308,0.0,0.5282361454671964,0.0,10.146923076923077,11.801538461538463
Isparta,Gönen,37.945537916034624,30.44781907299732,11.886076923076924,0.0,0.5291336685420303,0.0,10.97923076923077,12.75
Isparta,Keçiborlu,37.87842901793429,30.250525092170108,13.137692307692308,0.0,0.5328454375848874,0.0,12.118461538461538,13.987692307692308
Isparta,Merkez,37.80207146777093,30.60177514464697,11.886076923076924,0.0,0.5291336685420303,0.0,10.97923076923077,12.75
Isparta,Senirkent,38.12715507056526,30.67740919674908,11.886076923076924,0.0,0.5291336685420303,0.0,10.97923076923077,12.75
Isparta,Sütçüler,37.51636846526053,31.084157244337096,11.485923076923077,0.0,0.45434422184766926,0.0,10.680769230769231,12.24
Isparta,Uluborlu,38.08199843581524,30.47692246009521,11.886076923076924,0.0,0.5291336685420303,0.0,10.97923076923077,12.75
Isparta,Yalvaç,38.29591231571657,31.09706058191733,11.299076923076923,0.0,0.6000675833074879,0.0,10.335384615384616,12.23076923076923
Isparta,Yenişarbademli,37.80004196343562,31.364197813179263,10.945692307692308,0.0,0.5282361454671964,0.0,10.146923076923077,11.801538461538463
Isparta,Şarkikaraağaç,38.05874030739152,31.37474442345568,10.945692307692308,0.0,0.5282361454671964,0.0,10.146923076923077,11.801538461538463
Istanbul,Adalar,40.870840199799005,29.09589199563971,15.268384615384615,0.0,0.4393588733511299,0.0,14.546153846153846,15.93923076923077
Istanbul,Arnavutkoy,41.22317279987966,28.69244099234957,15.650153846153847,0.0,0.41982413900621224,0.0,14.927692307692308,16.328461538461536
Istanbul,Atasehir,41.00336548670554,29.11740621591277,15.268384615384615,0.0,0.4393588733511299,0.0,14.546153846153846,15.93923076923077
Istanbul,Avcılar,41.02166473380876,28.726502530152345,15.650153846153847,0.0,0.41982413900621224,0.0,14.927692307692308,16.328461538461536
Istanbul,Bahçelievler,41.013296627028936,28.83592824502312,15.650153846153847,0.0,0.41982413900621224,0.0,14.927692307692308,16.328461538461536
Istanbul,Bakırköy,40.98364353516592,28.827035969402267,15.650153846153847,0.0,0.41982413900621224,0.0,14.927692307692308,16.328461538461536
Istanbul,Basaksehir,41.09465405294947,28.77343939805951,15.650153846153847,0.0,0.41982413900621224,0.0,14.927692307692308,16.328461538461536
Istanbul,Bayrampaşa,41.05509608673799,28.895123272774008,15.650153846153847,0.0,0.41982413900621224,0.0,14.927692307692308,16.328461538461536
Istanbul,Bağcılar,41.04588412173794,28.838456582007097,15.650153846153847,0.0,0.41982413900621224,0.0,14.927692307692308,16.328461538461536
Istanbul,Beykoz,41.15210558329999,29.2022041944512,15.268384615384615,0.0,0.4393588733511299,0.0,14.546153846153846,15.93923076923077
Istanbul,Beylikduzu,40.986155998030455,28.64918154538088,15.650153846153847,0.0,0.41982413900621224,0.0,14.927692307692308,16.328461538461536
Istanbul,Beyoğlu,41.040733141941466,28.966952511595764,15.650153846153847,0.0,0.41982413900621224,0.0,14.927692307692308,16.328461538461536
Istanbul,Beşiktaş,41.07073951360178,29.01875794466796,15.650153846153847,0.0,0.41982413900621224,0.0,14.927692307692308,16.328461538461536
Istanbul,Büyükçekmece,41.04887474327648,28.5547952712492,15.650153846153847,0.0,0.41982413900621224,0.0,14.927692307692308,16.328461538461536
Istanbul,Esenler,41.06498663503229,28.867542858845773,15.650153846153847,0.0,0.41982413900621224,0.0,14.927692307692308,16.328461538461536
Istanbul,Esenyurt,41.04567353283205,28.67143399099698,15.650153846153847,0.0,0.41982413900621224,0.0,14.927692307692308,16.328461538461536
Istanbul,Eyüp,41.19085996166908,28.89908925594364,15.650153846153847,0.0,0.41982413900621224,0.0,14.927692307692308,16.328461538461536
Istanbul,Fatih,41.01406336197062,28.94128672574013,15.650153846153847,0.0,0.41982413900621224,0.0,14.927692307692308,16.328461538461536
Istanbul,Gaziosmanpaşa,41.07521172730295,28.90479607199568,15.650153846153847,0.0,0.41982413900621224,0.0,14.927692307692308,16.328461538461536
Istanbul,Güngören,41.02401986029414,28.87440566597237,15.650153846153847,0.0,0.41982413900621224,0.0,14.927692307692308,16.328461538461536
Istanbul,Kadıköy,40.99514327048232,29.0487947318557,15.650153846153847,0.0,0.41982413900621224,0.0,14.927692307692308,16.328461538461536
Istanbul,Kartal,40.93256571728403,29.17954287028946,15.268384615384615,0.0,0.4393588733511299,0.0,14.546153846153846,15.93923076923077
Istanbul,Kağıthane,41.08529370921891,28.969511875681288,15.650153846153847,0.0,0.41982413900621224,0.0,14.927692307692308,16.328461538461536
Istanbul,Küçükçekmece,41.029751786033096,28.779733067186463,15.650153846153847,0.0,0.41982413900621224,0.0,14.927692307692308,16.328461538461536
Istanbul,Maltepe,40.96717477627857,29.137476253659297,15.268384615384615,0.0,0.4393588733511299,0.0,14.546153846153846,15.93923076923077
Istanbul,Pendik,40.97064187094709,29.32430391148227,15.268384615384615,0.0,0.4393588733511299,0.0,14.546153846153846,15.93923076923077
Istanbul,Sancaktepe,41.023229585430045,29.24680873364361,15.268384615384615,0.0,0.4393588733511299,0.0,14.546153846153846,15.93923076923077
Istanbul,Sarıyer,41.1918629624813,29.02788128085068,15.650153846153847,0.0,0.41982413900621224,0.0,14.927692307692308,16.328461538461536
Istanbul,Silivri,41.16277749487677,28.26095576819644,15.584615384615384,0.0,0.4125520707078869,0.0,14.852307692307692,16.290769230769232
Istanbul,Sultanbeyli,40.982527371781714,29.256979074047106,15.268384615384615,0.0,0.4393588733511299,0.0,14.546153846153846,15.93923076923077
Istanbul,Sultangazi,41.11716969056438,28.88087103319228,15.650153846153847,0.0,0.41982413900621224,0.0,14.927692307692308,16.328461538461536
Istanbul,Tuzla,40.9199190412752,29.34862551544422,15.268384615384615,0.0,0.4393588733511299,0.0,14.546153846153846,15.93923076923077
Istanbul,Zeytinburnu,41.00642581236035,28.899326167797422,15.650153846153847,0.0,0.41982413900621224,0.0,14.927692307692308,16.328461538461536
Istanbul,Çatalca,41.303680786419086,28.403950627033687,14.557153846153847,0.0,0.42715994814796865,0.0,13.825384615384614,15.35153846153846
Istanbul,Çekmekoy,41.08152979037292,29.278654285926937,15.268384615384615,0.0,0.4393588733511299,0.0,14.546153846153846,15.93923076923077
Istanbul,Ümraniye,41.03728583436568,29.123291376221548,15.268384615384615,0.0,0.4393588733511299,0.0,14.546153846153846,15.93923076923077
Istanbul,Üsküdar,41.04382254154166,29.05695835312984,15.650153846153847,0.0,0.41982413900621224,0.0,14.927692307692308,16.328461538461536
Istanbul,Şile,41.1071150031493,29.58191380031048,15.268384615384615,0.0,0.4393588733511299,0.0,14.546153846153846,15.93923076923077
Istanbul,Şişli,41.10578926660864,28.988598793102064,15.650153846153847,0.0,0.41982413900621224,0.0,14.927692307692308,16.328461538461536
Izmir,Aliağa,38.80984645537967,27.0366243323014,17.234153846153845,0.0,0.4097328710770296,0.0,16.737692307692306,17.875384615384615
Izmir,Balçova,38.38425724016951,27.06149863200663,17.646461538461537,0.0,0.42057225971410134,0.0,16.982307692307693,18.33
Izmir,Bayındır,38.26169206311682,27.650937876039823,16.853538461538463,0.0,0.44908778897791574,0.0,16.10076923076923,17.66769230769231
Izmir,Bergama,39.17315026306584,27.19028050880369,15.540615384615384,0.0,0.4747868894578408,0.0,14.867692307692307,16.40153846153846
Izmir,Beydağ,38.08007767245198,28.23019425083093,15.998384615384614,0.0,0.4350973728556371,0.0,15.157692307692308,16.673846153846153
Izmir,Bornova,38.48514375796732,27.261047357052263,16.853538461538463,0.0,0.44908778897791574,0.0,16.10076923076923,17.66769230769231
Izmir,Buca,38.34707608465182,27.26032516179064,16.853538461538463,0.0,0.44908778897791574,0.0,16.10076923076923,17.66769230769231
Izmir,Dikili,39.06938533634467,26.90766279846804,17.234153846153845,0.0,0.4097328710770296,0.0,16.737692307692306,17.875384615384615
Izmir,Foça,38.68366951144227,26.83164010258421,17.646461538461537,0.0,0.42057225971410134,0.0,16.982307692307693,18.33
Izmir,Gaziemir,38.318739444378345,27.150788156781367,17.646461538461537,0.0,0.42057225971410134,0.0,16.982307692307693,18.33
Izmir,Güzelbahçe,38.333506743031485,26.89707340663368,17.646461538461537,0.0,0.42057225971410134,0.0,16.982307692307693,18.33
Izmir,Karaburun,38.554937233660304,26.47724517819197,18.35476923076923,0.0,0.37685326407369446,0.0,17.908461538461538,19.04
Izmir,Karşıyaka,38.49771662354196,27.12715789337989,17.646461538461537,0.0,0.42057225971410134,0.0,16.982307692307693,18.33
Izmir,Kemalpaşa,38.42256139569008,27.486768909352,16.853538461538463,0.0,0.44908778897791574,0.0,16.10076923076923,17.66769230769231
Izmir,Kiraz,38.20993273150171,28.314340876911736,15.998384615384614,0.0,0.4350973728556371,0.0,15.157692307692308,16.673846153846153
Izmir,Konak,38.38447364387719,27.130677990594947,17.646461538461537,0.0,0.42057225971410134,0.0,16.982307692307693,18.33
Izmir,Kınık,39.060858645640046,27.369724603612266,15.540615384615384,0.0,0.4747868894578408,0.0,14.867692307692307,16.40153846153846
Izmir,Menderes,38.15616779636554,27.11301236225148,18.823307692307694,0.0,0.3723815088933399,0.0,18.37846153846154,19.41923076923077
Izmir,Menemen,38.63050696319171,27.065105117551457,17.646461538461537,0.0,0.42057225971410134,0.0,16.982307692307693,18.33
Izmir,Narlıdere,38.36624294995448,27.00008804220032,17.646461538461537,0.0,0.42057225971410134,0.0,16.982307692307693,18.33
Izmir,Seferihisar,38.17087635037506,26.875362993764405,18.823307692307694,0.0,0.3723815088933399,0.0,18.37846153846154,19.41923076923077
Izmir,Selçuk,37.96023968098233,27.357522865184663,17.42823076923077,0.0,0.4164757827059554,0.0,16.693846153846156,18.155384615384616
Izmir,Tire,38.06487039819864,27.69794212876306,17.42823076923077,0.0,0.4164757827059554,0.0,16.693846153846156,18.155384615384616
Izmir,Torbalı,38.18078158026846,27.35728581417505,17.42823076923077,0.0,0.4164757827059554,0.0,16.693846153846156,18.155384615384616
Izmir,Urla,38.30512999454725,26.628831322169063,17.646461538461537,0.0,0.42057225971410134,0.0,16.982307692307693,18.33
Izmir,Çeşme,38.28010311355429,26.379489247397444,18.35476923076923,0.0,0.37685326407369446,0.0,17.908461538461538,19.04
Izmir,Çiğli,38.486650496230666,26.99132528919394,17.646461538461537,0.0,0.42057225971410134,0.0,16.982307692307693,18.33
Izmir,Ödemiş,38.21616808631224,27.985920019960016,15.998384615384614,0.0,0.4350973728556371,0.0,15.157692307692308,16.673846153846153
Iğdır,Aralık,39.81909803789586,44.45019438381413,14.122230769230772,0.0,0.4951232853730536,0.0,13.183076923076923,14.886923076923077
Iğdır,Karakoyunlu,40.00453196228917,44.24665510497954,14.122230769230772,0.0,0.4951232853730536,0.0,13.183076923076923,14.886923076923077
Iğdır,Merkez,39.861036652191466,44.03699765698201,11.936692307692308,0.0,0.5490067596038588,0.0,10.846923076923076,12.717692307692307
Iğdır,Tuzluca,39.9899571445607,43.5646862523151,11.936692307692308,0.0,0.5490067596038588,0.0,10.846923076923076,12.717692307692307
K. Maras,Afşin,38.39502181678711,36.86916151565376,8.690076923076923,0.0,0.4506736064379374,0.0,8.134615384615385,9.511538461538462
K. Maras,Andırın,37.60144823999392,36.410449783125216,15.931846153846152,0.0,0.3773645069050122,0.0,15.343076923076923,16.53230769230769
K. Maras,Ekinözü,38.01214733018902,37.10210282089438,10.538615384615385,0.0,0.43059150790490014,0.0,9.936923076923078,11.253076923076922
K. Maras,Elbistan,38.290124742715975,37.36584503436358,10.114538461538462,0.0,0.43443108564976035,0.0,9.562307692307693,10.892307692307693
K. Maras,Göksun,38.09481454692206,36.61979168350132,10.538615384615385,0.0,0.43059150790490014,0.0,9.936923076923078,11.253076923076922
K. Maras,Merkez,37.663446446223325,36.8479689866216,14.803307692307692,0.0,0.39125685471852606,0.0,14.183846153846153,15.393846153846154
K. Maras,Nurhak,37.92851827118248,37.39155216744869,11.053538461538462,0.0,0.42522024304509815,0.0,10.493846153846153,11.731538461538461
K. Maras,Pazarcık,37.457507003529535,37.30149729062399,15.63653846153846,0.0,0.38148180755280314,0.0,15.093846153846155,16.186153846153847
K. Maras,Türkoğlu,37.37613537699893,36.78514751468361,14.803307692307692,0.0,0.39125685471852606,0.0,14.183846153846153,15.393846153846154
K. Maras,Çağlayancerit,37.73564987333556,37.27938712946656,15.63653846153846,0.0,0.38148180755280314,0.0,15.093846153846155,16.186153846153847
Karabük,Eflani,41.41756215258194,32.901875855141505,10.53376923076923,0.0,0.679806354645138,0.0,9.843846153846155,11.57076923076923
Karabük,Eskipazar,40.96750057723487,32.520815995349075,10.282307692307693,0.0,0.7065514773447631,0.0,9.48,11.338461538461539
Karabük,Merkez,41.11644535700007,32.54151572491861,10.282307692307693,0.0,0.7065514773447631,0.0,9.48,11.338461538461539
Karabük,Ovacık,41.083980391464806,32.91549842350588,9.811846153846153,0.0,0.6723586594931301,0.0,9.139999999999999,10.825384615384618
Karabük,Safranbolu,41.29167161452997,32.708259566328955,12.009076923076922,0.0,0.6578823437152389,0.0,11.253076923076922,13.023076923076925
Karabük,Yenice,41.12443053602763,32.23257393496578,10.282307692307693,0.0,0.7065514773447631,0.0,9.48,11.338461538461539
Karaman,Ayrancı,37.29748360435355,33.714947105302535,12.252153846153846,0.0,0.5111512318815666,0.0,11.634615384615385,13.163846153846153
Karaman,Başyayla,36.71081739336535,32.71356906949194,13.28976923076923,0.0,0.39281918222978807,0.0,12.74076923076923,14.006923076923076
Karaman,Ermenek,36.6047431893838,32.8891579394211,13.62023076923077,0.0,0.43664506774653594,0.0,13.016153846153847,14.406153846153845
Karaman,Kazımkarabekir,37.07092534017522,32.792583879808724,9.880230769230769,0.0,0.4985562390256495,0.0,9.186923076923076,10.673846153846153
Karaman,Merkez,37.13511034870772,33.17993087230495,11.100538461538461,0.0,0.5011694476453274,0.0,10.503846153846153,11.957692307692307
Karaman,Sarıveliler,36.65053913147808,32.57587805318054,13.28976923076923,0.0,0.39281918222978807,0.0,12.74076923076923,14.006923076923076
Kars,Akyaka,40.84302254538761,43.62180045229728,4.561307692307692,0.0,0.6228201486312813,0.0,3.482307692307692,5.5284615384615385
Kars,Arpaçay,40.96470193254656,43.35864185008969,4.444461538461538,0.0,0.6048823707513382,0.0,3.338461538461538,5.451538461538462
Kars,Digor,40.40381560687182,43.4557782026965,8.519538461538462,0.0,0.5719945839571083,0.0,7.337692307692308,9.417692307692308
Kars,Kağızman,40.18341220192082,43.11255528603342,6.893307692307692,0.0,0.704550630585563,0.0,5.426153846153847,7.7869230769230775
Kars,Merkez,40.622435773810025,43.26038325865019,6.275,0.0,0.671090769205493,0.0,4.855384615384615,7.1123076923076916
Kars,Sarıkamış,40.19680465045524,42.5622000060736,6.1047692307692305,0.0,0.700058117245538,0.0,4.671538461538462,7.063076923076924
Kars,Selim,40.50165322285616,42.77289360363134,5.756846153846154,0.0,0.6643208679904615,0.0,4.374615384615385,6.725384615384616
Kars,Susuz,40.83415356522679,43.0522554373577,4.444461538461538,0.0,0.6048823707513382,0.0,3.338461538461538,5.451538461538462
Kastamonu,Abana,41.95182748333961,33.98623153859628,13.718692307692308,0.0,0.4909254165639972,0.0,13.206153846153846,14.377692307692307
Kastamonu,Araç,41.194805355516095,33.285543390515365,9.811846153846153,0.0,0.6723586594931301,0.0,9.139999999999999,10.825384615384618
Kastamonu,Azdavay,41.71397896056427,33.33726627946292,10.53376923076923,0.0,0.679806354645138,0.0,9.843846153846155,11.57076923076923
Kastamonu,Ağlı,41.675876020872366,33.55078237488371,9.577923076923076,0.0,0.6785735560762131,0.0,8.891538461538461,10.585384615384616
Kastamonu,Bozkurt,41.87419739065382,33.95704133708591,13.718692307692308,0.0,0.4909254165639972,0.0,13.206153846153846,14.377692307692307
Kastamonu,Cide,41.82858910874938,32.98224052250757,14.074076923076921,0.0,0.4787031915102826,0.0,13.534615384615384,14.708461538461538
Kastamonu,Daday,41.4702747290469,33.3234094741664,10.53376923076923,0.0,0.679806354645138,0.0,9.843846153846155,11.57076923076923
Kastamonu,Devrekani,41.66486687461592,33.90800868299882,9.577923076923076,0.0,0.6785735560762131,0.0,8.891538461538461,10.585384615384616
Kastamonu,Doğanyurt,41.9471924980133,33.41351062821061,14.074076923076921,0.0,0.4787031915102826,0.0,13.534615384615384,14.708461538461538
Kastamonu,Hanönü,41.64965200515454,34.440398344150665,10.227076923076924,0.0,0.6722807794492052,0.0,9.484615384615385,11.197692307692307
Kastamonu,Küre,41.799941459565694,33.66256395700428,13.718692307692308,0.0,0.4909254165639972,0.0,13.206153846153846,14.377692307692307
Kastamonu,Merkez,41.31151494459038,33.859158039636974,9.577923076923076,0.0,0.6785735560762131,0.0,8.891538461538461,10.585384615384616
Kastamonu,Pınarbası,41.63597756722295,33.00607773052715,10.53376923076923,0.0,0.679806354645138,0.0,9.843846153846155,11.57076923076923
Kastamonu,Seydiler,41.61465876724663,33.68441354008949,9.577923076923076,0.0,0.6785735560762131,0.0,8.891538461538461,10.585384615384616
Kastamonu,Taşköprü,41.466813350042585,34.217867658873026,10.227076923076924,0.0,0.6722807794492052,0.0,9.484615384615385,11.197692307692307
Kastamonu,Tosya,40.999952237588765,34.057429339221834,8.945846153846153,0.0,0.6470615520972466,0.0,8.296153846153846,9.90230769230769
Kastamonu,Çatalzeytin,41.85386828106279,34.144230824299875,13.975,0.0,0.4700787140151649,0.0,13.460769230769232,14.660769230769231
Kastamonu,İhsangazi,41.18031064916876,33.64330541856923,8.945846153846153,0.0,0.6470615520972466,0.0,8.296153846153846,9.90230769230769
Kastamonu,İnebolu,41.91298834206647,33.71829021256155,13.718692307692308,0.0,0.4909254165639972,0.0,13.206153846153846,14.377692307692307
Kastamonu,Şenpazar,41.81584733949298,33.202466193132814,14.074076923076921,0.0,0.4787031915102826,0.0,13.534615384615384,14.708461538461538
Kayseri,Akkışla,39.02101655593809,36.18818206901898,8.958923076923076,0.0,0.45709070567556975,0.0,8.43,9.818461538461538
Kayseri,Bünyan,38.836125348556855,35.908011422283806,10.832307692307692,0.0,0.5090906668117636,0.0,10.314615384615385,11.785384615384617
Kayseri,Develi,38.34155780038354,35.67977561338044,9.530384615384616,0.0,0.48639792233932877,0.0,8.963076923076922,10.415384615384616
Kayseri,Felahiye,39.07515952405515,35.492419036519415,10.832307692307692,0.0,0.5090906668117636,0.0,10.314615384615385,11.785384615384617
Kayseri,Hacılar,38.68805138410284,35.408237795817875,9.530384615384616,0.0,0.48639792233932877,0.0,8.963076923076922,10.415384615384616
Kayseri,Kocasinan,38.903984951106914,35.38692989423443,10.832307692307692,0.0,0.5090906668117636,0.0,10.314615384615385,11.785384615384617
Kayseri,Melikgazi,38.73986797145639,35.4628611173308,9.530384615384616,0.0,0.48639792233932877,0.0,8.963076923076922,10.415384615384616
Kayseri,Pınarbaşı,38.88360341490513,36.49520831901496,8.958923076923076,0.0,0.45709070567556975,0.0,8.43,9.818461538461538
Kayseri,Sarıoğlan,39.108292754697054,35.906872816256964,10.832307692307692,0.0,0.5090906668117636,0.0,10.314615384615385,11.785384615384617
Kayseri,Sarız,38.55438985249052,36.53860965614989,8.506923076923076,0.0,0.4762149416087653,0.0,7.900769230769232,9.386153846153846
Kayseri,Talas,38.67658400695092,35.64836255811835,9.530384615384616,0.0,0.48639792233932877,0.0,8.963076923076922,10.415384615384616
Kayseri,Tomarza,38.50005173368307,35.94598679412606,8.506923076923076,0.0,0.4762149416087653,0.0,7.900769230769232,9.386153846153846
Kayseri,Yahyalı,38.13542303708428,35.464857253146825,10.716615384615384,0.0,0.4393280087551804,0.0,10.156153846153845,11.414615384615384
Kayseri,Yeşilhisar,38.425474014151625,35.134583423333886,11.035846153846155,0.0,0.5069979971353701,0.0,10.493846153846153,11.938461538461537
Kayseri,Özvatan,39.17704181576203,35.72907104068133,10.832307692307692,0.0,0.5090906668117636,0.0,10.314615384615385,11.785384615384617
Kayseri,İncesu,38.68818288046348,35.21346174195317,11.035846153846155,0.0,0.5069979971353701,0.0,10.493846153846153,11.938461538461537
Kilis,Elbeyli,36.70656393961672,37.41855746501786,17.877923076923075,0.0,0.4372804680729008,0.0,17.204615384615384,18.63769230769231
Kilis,Merkez,36.738730163316994,37.15574732437857,17.613615384615386,0.0,0.40768651019906094,0.0,16.97153846153846,18.323076923076922
Kilis,Musabeyli,36.90707259418199,37.01232755487428,15.619615384615383,0.0,0.38421316575435965,0.0,15.023076923076925,16.303846153846152
Kilis,Polateli,36.84004315450963,37.16552577132454,15.619615384615383,0.0,0.38421316575435965,0.0,15.023076923076925,16.303846153846152
Kinkkale,Bahşılı,39.52007963732624,33.36030063208494,11.650384615384615,0.0,0.5614393133403667,0.0,11.033076923076923,12.556923076923077
Kinkkale,Balışeyh,39.88863270010308,33.73086506032924,11.861307692307694,0.0,0.5878276626246383,0.0,11.203846153846154,12.798461538461538
Kinkkale,Delice,39.992474158765305,33.99996060680521,11.861307692307694,0.0,0.5878276626246383,0.0,11.203846153846154,12.798461538461538
Kinkkale,Karakeçili,39.39222741353078,33.3406152393033,11.650384615384615,0.0,0.5614393133403667,0.0,11.033076923076923,12.556923076923077
Kinkkale,Keskin,39.5860255047836,33.69578909155509,11.647076923076924,0.0,0.5633522749286847,0.0,11.052307692307693,12.600769230769231
Kinkkale,Merkez,39.67372996803031,33.528296800201964,11.647076923076924,0.0,0.5633522749286847,0.0,11.052307692307693,12.600769230769231
Kinkkale,Sulakyurt,40.14055730814778,33.7702916314762,11.861307692307694,0.0,0.5878276626246383,0.0,11.203846153846154,12.798461538461538
Kinkkale,Yahşihan,39.71111747157372,33.407742318472074,11.650384615384615,0.0,0.5614393133403667,0.0,11.033076923076923,12.556923076923077
Kinkkale,Çelebi,39.30544537902712,33.46108592745908,11.647076923076924,0.0,0.5633522749286847,0.0,11.052307692307693,12.600769230769231
Kirklareli,Babaeski,41.4891757023664,27.11704832313898,14.63053846153846,0.0,0.5059528671205801,0.0,14.043846153846154,15.743846153846155
Kirklareli,Demirköy,41.85890314443117,27.813727934139447,14.570153846153847,0.0,0.43003765717408027,0.0,13.803846153846154,15.266153846153847
Kirklareli,Kofçaz,42.00959251408447,27.152962384957853,13.205615384615385,0.0,0.5040190934362742,0.0,12.662307692307694,14.3
Kirklareli,Lüleburgaz,41.40873425332784,27.44797403061313,14.100692307692308,0.0,0.45358422834408413,0.0,13.503076923076922,15.116153846153846
Kirklareli,Merkez,41.79679164619043,27.24409889272693,12.553,0.0,0.4769450573925717,0.0,11.842307692307692,13.571538461538463
Kirklareli,Pehlivanköy,41.38203876352067,26.9547054686771,14.63053846153846,0.0,0.5059528671205801,0.0,14.043846153846154,15.743846153846155
Kirklareli,Pınarhisar,41.63684756931077,27.548721332237697,14.100692307692308,0.0,0.45358422834408413,0.0,13.503076923076922,15.116153846153846
Kirklareli,Vize,41.62198042968272,27.864879549390896,14.557153846153847,0.0,0.42715994814796865,0.0,13.825384615384614,15.35153846153846
Kirsehir,Akpınar,39.469317629716926,33.97461834759443,11.647076923076924,0.0,0.5633522749286847,0.0,11.052307692307693,12.600769230769231
Kirsehir,Akçakent,39.65801129584688,34.07340287001202,11.37823076923077,0.0,0.5713493780241412,0.0,10.798461538461538,12.377692307692307
Kirsehir,Boztepe,39.35482538239514,34.41616640625469,11.37823076923077,0.0,0.5713493780241412,0.0,10.798461538461538,12.377692307692307
Kirsehir,Kaman,39.2740813827992,33.783678531692594,11.647076923076924,0.0,0.5633522749286847,0.0,11.052307692307693,12.600769230769231
Kirsehir,Merkez,39.14276997215997,34.151790560061265,11.539615384615384,0.0,0.548240296538108,0.0,10.948461538461537,12.547692307692309
Kirsehir,Mucur,39.12749158770858,34.47687633199949,11.539615384615384,0.0,0.548240296538108,0.0,10.948461538461537,12.547692307692309
Kirsehir,Çiçekdağı,39.58560528717742,34.38960608600167,11.37823076923077,0.0,0.5713493780241412,0.0,10.798461538461538,12.377692307692307
Kocaeli,Derince,40.92600433466427,29.87295713249292,14.071153846153845,0.0,0.5180723703630569,0.0,13.34769230769231,14.72
Kocaeli,Gebze,40.89282812804596,29.515156327598778,15.268384615384615,0.0,0.4393588733511299,0.0,14.546153846153846,15.93923076923077
Kocaeli,Gölcük,40.66098435326528,29.78785864631317,12.633230769230769,0.0,0.6183053338477378,0.0,11.878461538461538,13.464615384615383
Kocaeli,Kandıra,41.03665775752437,30.14009229954649,14.071153846153845,0.0,0.5180723703630569,0.0,13.34769230769231,14.72
Kocaeli,Karamürsel,40.63211886278607,29.55543042326596,14.389,0.0,0.5081298360744108,0.0,13.765384615384615,15.083076923076923
Kocaeli,Körfez,40.90041555918955,29.73060629570113,14.071153846153845,0.0,0.5180723703630569,0.0,13.34769230769231,14.72
Kocaeli,Merkez,40.77605737856626,30.045464850878933,14.071153846153845,0.0,0.5180723703630569,0.0,13.34769230769231,14.72
Konya,Ahırlı,37.23831890824377,32.083100411080174,12.456538461538461,0.0,0.41268547719791665,0.0,11.777692307692309,13.133076923076924
Konya,Akören,37.41155669888813,32.33093449278149,11.994538461538461,0.0,0.5179669265649317,0.0,11.373846153846156,12.853846153846153
Konya,Akşehir,38.34847070999706,31.480696777778707,11.299076923076923,0.0,0.6000675833074879,0.0,10.335384615384616,12.23076923076923
Konya,Altınekin,38.2799675304721,32.90091978625551,12.90653846153846,0.0,0.5406840883234926,0.0,12.288461538461538,13.883076923076924
Konya,Beyşehir,37.68898506812776,31.685684457583136,10.561769230769231,0.0,0.47601941545716014,0.0,9.865384615384615,11.338461538461539
Konya,Bozkır,37.148767608002,32.34499113718936,9.880230769230769,0.0,0.4985562390256495,0.0,9.186923076923076,10.673846153846153
Konya,Cihanbeyli,38.68253065488768,32.918607177383706,12.90653846153846,0.0,0.5406840883234926,0.0,12.288461538461538,13.883076923076924
Konya,Derbent,37.97709786720253,32.06683773688085,10.454538461538462,0.0,0.5108308131447429,0.0,9.776923076923078,11.281538461538462
Konya,Derebucak,37.397430403771104,31.51839217373538,11.485923076923077,0.0,0.45434422184766926,0.0,10.680769230769231,12.24
Konya,Doğanhisar,38.11808182319965,31.66918178229076,10.454538461538462,0.0,0.5108308131447429,0.0,9.776923076923078,11.281538461538462
Konya,Emirgazi,37.89559389867141,33.887236856925576,12.726461538461539,0.0,0.5169780444930293,0.0,12.110000000000001,13.693846153846152
Konya,Ereğli,37.6128726817497,34.100274073132965,11.004999999999999,0.0,0.4839298162555639,0.0,10.450769230769229,11.808461538461538
Konya,Güneysınır,37.26223336258701,32.73956402992996,11.994538461538461,0.0,0.5179669265649317,0.0,11.373846153846156,12.853846153846153
Konya,Hadım,36.95720628842321,32.46229990016329,9.880230769230769,0.0,0.4985562390256495,0.0,9.186923076923076,10.673846153846153
Konya,Halkapınar,37.32917479360458,34.26514075535089,11.004999999999999,0.0,0.4839298162555639,0.0,10.450769230769229,11.808461538461538
Konya,Hüyük,37.913990516495865,31.592019338962547,10.454538461538462,0.0,0.5108308131447429,0.0,9.776923076923078,11.281538461538462
Konya,Ilgın,38.22752452189029,31.938845120069576,10.454538461538462,0.0,0.5108308131447429,0.0,9.776923076923078,11.281538461538462
Konya,Kadınhanı,38.35367404500432,32.23500259201729,12.332,0.0,0.544577501217547,0.0,11.627692307692307,13.218461538461538
Konya,Karapınar,37.67785755469574,33.443256217669926,12.252153846153846,0.0,0.5111512318815666,0.0,11.634615384615385,13.163846153846153
Konya,Karatay,37.881286516808686,32.99467643107432,12.38623076923077,0.0,0.5334556627459429,0.0,11.733076923076924,13.330769230769231
Konya,Kulu,39.01796694643443,33.10920081993712,12.367076923076922,0.0,0.5435556109264491,0.0,11.793076923076923,13.315384615384614
Konya,Meram,37.69899989029624,32.25729975466512,11.994538461538461,0.0,0.5179669265649317,0.0,11.373846153846156,12.853846153846153
Konya,Sarayönü,38.37737470486467,32.45987588098039,12.332,0.0,0.544577501217547,0.0,11.627692307692307,13.218461538461538
Konya,Selçuklu,38.01834468476292,32.56531521025059,11.639923076923077,0.0,0.5335091487822113,0.0,10.96923076923077,12.515384615384615
Konya,Seydişehir,37.45269788090661,31.912295349691483,10.561769230769231,0.0,0.47601941545716014,0.0,9.865384615384615,11.338461538461539
Konya,Taşkent,36.84685829698951,32.5470541623155,9.880230769230769,0.0,0.4985562390256495,0.0,9.186923076923076,10.673846153846153
Konya,Tuzlukçu,38.48928912748504,31.68455028302206,12.140461538461539,0.0,0.5651431195388741,0.0,11.34769230769231,13.031538461538462
Konya,Yalıhüyük,37.28255740495696,32.0482470532628,10.561769230769231,0.0,0.47601941545716014,0.0,9.865384615384615,11.338461538461539
Konya,Yunak,38.76669278015189,32.076160994819176,12.403846153846153,0.0,0.5709606424499193,0.0,11.59153846153846,13.279230769230768
Konya,Çeltik,39.01507920448279,31.90400523018877,12.403846153846153,0.0,0.5709606424499193,0.0,11.59153846153846,13.279230769230768
Konya,Çumra,37.48230572250795,32.76686116715732,11.994538461538461,0.0,0.5179669265649317,0.0,11.373846153846156,12.853846153846153
Kütahya,Altıntaş,39.01348945332598,29.99986929755896,10.763461538461538,0.0,0.6089141940589788,0.0,9.722307692307693,11.667692307692308
Kütahya,Aslanapa,39.18023267315792,29.78595214155916,10.763461538461538,0.0,0.6089141940589788,0.0,9.722307692307693,11.667692307692308
Kütahya,Domaniç,39.81556528903673,29.544204456914937,11.155153846153846,0.0,0.5713332677405429,0.0,10.426923076923078,11.937692307692307
Kütahya,Dumlupınar,38.83111820887628,29.99112661549525,10.763461538461538,0.0,0.6089141940589788,0.0,9.722307692307693,11.667692307692308
Kütahya,Emet,39.32469872113378,29.330828104163977,11.656538461538462,0.0,0.5976987701638325,0.0,10.855384615384615,12.49076923076923
Kütahya,Gediz,38.95028220739621,29.3950878892225,11.531461538461539,0.0,0.5747273829912979,0.0,10.588461538461539,12.370000000000001
Kütahya,Hisarcık,39.200596723493966,29.18061620733417,11.531461538461539,0.0,0.5747273829912979,0.0,10.588461538461539,12.370000000000001
Kütahya,Merkez,39.41431914168413,30.058179936765583,10.945461538461538,0.0,0.6089301954296426,0.0,10.083076923076923,11.80153846153846
Kütahya,Pazarlar,38.93083301873256,29.0707230067182,11.531461538461539,0.0,0.5747273829912979,0.0,10.588461538461539,12.370000000000001
Kütahya,Simav,39.20476557325831,28.930882658768187,12.661615384615384,0.0,0.5517986190417034,0.0,11.790000000000001,13.481538461538461
Kütahya,Tavşanlı,39.563194529869726,29.447977252977708,11.656538461538462,0.0,0.5976987701638325,0.0,10.855384615384615,12.49076923076923
Kütahya,Çavdarhisar,39.16429472320813,29.59259232770093,11.531461538461539,0.0,0.5747273829912979,0.0,10.588461538461539,12.370000000000001
Kütahya,Şaphane,38.94075098054272,29.15393100459662,11.531461538461539,0.0,0.5747273829912979,0.0,10.588461538461539,12.370000000000001
Malatya,Akçadağ,38.35524229056682,37.93119431747869,13.707538461538462,0.0,0.45031858107077244,0.0,13.18,14.492307692307692
Malatya,Arapkir,38.96181195935843,38.48807456296204,12.392615384615386,0.0,0.4795848248305589,0.0,11.589230769230769,13.27
Malatya,Arguvan,38.84986408530041,38.2857051146808,10.116,0.0,0.4744390507602201,0.0,9.373846153846154,10.992307692307692
Malatya,Battalgazi,38.420846230359935,38.46679162949347,13.138538461538463,0.0,0.4640098292391082,0.0,12.502307692307692,13.99923076923077
Malatya,Darende,38.57286880461476,37.5382087613363,10.114538461538462,0.0,0.43443108564976035,0.0,9.562307692307693,10.892307692307693
Malatya,Doğanyol,38.26085968126248,39.032141934884486,13.138538461538463,0.0,0.4640098292391082,0.0,12.502307692307692,13.99923076923077
Malatya,Doğanşehir,38.004506787240615,37.893164596364,11.455461538461538,0.0,0.42849252600123794,0.0,10.973846153846154,12.129999999999999
Malatya,Hekimhan,38.78035248926875,37.95128721123495,10.116,0.0,0.4744390507602201,0.0,9.373846153846154,10.992307692307692
Malatya,Kale,38.34974907243714,38.767691232712565,13.138538461538463,0.0,0.4640098292391082,0.0,12.502307692307692,13.99923076923077
Malatya,Kuluncak,38.86313755806931,37.68729950346901,8.40823076923077,0.0,0.4630800536566806,0.0,7.763076923076923,9.262307692307692
Malatya,Merkez,38.3184971952432,38.44440313253644,13.138538461538463,0.0,0.4640098292391082,0.0,12.502307692307692,13.99923076923077
Malatya,Pötürge,38.1843652278076,38.83577327257186,13.909692307692307,0.0,0.43160026676261387,0.0,13.356153846153846,14.593076923076923
Malatya,Yazıhan,38.561741391766574,38.193982780925616,13.707538461538462,0.0,0.45031858107077244,0.0,13.18,14.492307692307692
Malatya,Yeşilyurt,38.21792874055504,38.175075442753474,11.455461538461538,0.0,0.42849252600123794,0.0,10.973846153846154,12.129999999999999
Manisa,Ahmetli,38.524368686810256,27.911618670120983,15.173846153846153,0.0,0.46856559269904513,0.0,14.409230769230769,15.985384615384616
Manisa,Akhisar,38.96036564707824,27.88654442339508,14.494384615384615,0.0,0.5099544332559242,0.0,13.776923076923076,15.34769230769231
Manisa,Alaşehir,38.32673241395126,28.53896812875769,14.450230769230767,0.0,0.5224922637517936,0.0,13.452307692307691,15.255384615384616
Manisa,Demirci,38.93423047348449,28.660218026866648,12.661615384615384,0.0,0.5517986190417034,0.0,11.790000000000001,13.481538461538461
Manisa,Gölmarmara,38.69794540632812,27.98171618266756,15.173846153846153,0.0,0.46856559269904513,0.0,14.409230769230769,15.985384615384616
Manisa,Gördes,38.93364467673309,28.285064979391432,14.494384615384615,0.0,0.5099544332559242,0.0,13.776923076923076,15.34769230769231
Manisa,Kula,38.54330420006076,28.66972729961144,14.450230769230767,0.0,0.5224922637517936,0.0,13.452307692307691,15.255384615384616
Manisa,Köprübaşı,38.73699562193105,28.352091940616507,15.173846153846153,0.0,0.46856559269904513,0.0,14.409230769230769,15.985384615384616
Manisa,Kırkağaç,39.18088382760613,27.79327336795698,15.540615384615384,0.0,0.4747868894578408,0.0,14.867692307692307,16.40153846153846
Manisa,Merkez,38.71060284103788,27.40009429364583,16.853538461538463,0.0,0.44908778897791574,0.0,16.10076923076923,17.66769230769231
Manisa,Salihli,38.54121156209489,28.206730719712525,15.173846153846153,0.0,0.46856559269904513,0.0,14.409230769230769,15.985384615384616
Manisa,Saruhanlı,38.78219029813072,27.635533750654687,15.540615384615384,0.0,0.4747868894578408,0.0,14.867692307692307,16.40153846153846
Manisa,Sarıgöl,38.22687803124673,28.764900254208925,15.060692307692307,0.0,0.5013162753088579,0.0,14.04076923076923,15.756153846153847
Manisa,Selendi,38.76296942839616,28.85793820035384,12.661615384615384,0.0,0.5517986190417034,0.0,11.790000000000001,13.481538461538461
Manisa,Soma,39.23535062803184,27.59010883415992,15.540615384615384,0.0,0.4747868894578408,0.0,14.867692307692307,16.40153846153846
Manisa,Turgutlu,38.49454075013268,27.772654140700567,16.853538461538463,0.0,0.44908778897791574,0.0,16.10076923076923,17.66769230769231
Mardin,Dargeçit,37.59892431523612,41.7878578067588,16.78753846153846,0.0,0.5149296116276152,0.0,16.078461538461536,17.594615384615384
Mardin,Derik,37.34625906041294,40.17238488492183,16.235846153846154,0.0,0.47443328593258455,0.0,15.60153846153846,16.96
Mardin,Kızıltepe,37.14421679204911,40.49808418746397,18.770923076923076,0.0,0.45566646394510296,0.0,18.186153846153847,19.50153846153846
Mardin,Mazıdağı,37.498282302026446,40.42914052522698,16.08030769230769,0.0,0.4753786960602894,0.0,15.582307692307692,16.84
Mardin,Merkez,37.28546789729628,40.91295750834781,16.08030769230769,0.0,0.4753786960602894,0.0,15.582307692307692,16.84
Mardin,Midyat,37.43933841392414,41.46039500586316,16.631076923076925,0.0,0.4948820511757687,0.0,16.073076923076922,17.37923076923077
Mardin,Nusaybin,37.2142241261676,41.49790160201557,19.26615384615385,0.0,0.4465087006138466,0.0,18.65307692307692,19.976153846153846
Mardin,Savur,37.62015056096718,40.84575577755323,16.08030769230769,0.0,0.4753786960602894,0.0,15.582307692307692,16.84
Mardin,Yeşilli,37.40003393683931,40.90782057130607,16.08030769230769,0.0,0.4753786960602894,0.0,15.582307692307692,16.84
Mardin,Ömerli,37.40468244887072,41.085700460278765,16.631076923076925,0.0,0.4948820511757687,0.0,16.073076923076922,17.37923076923077
Mersin,Anamur,36.25212330657917,32.7938936555715,13.28976923076923,0.0,0.39281918222978807,0.0,12.74076923076923,14.006923076923076
Mersin,Aydıncık,36.21515182520446,33.30417106119087,20.70823076923077,0.0,0.33159091936311486,0.0,20.31692307692308,21.335384615384616
Mersin,Bozyazı,36.21449129407862,33.05500382055722,20.70823076923077,0.0,0.33159091936311486,0.0,20.31692307692308,21.335384615384616
Mersin,Erdemli,36.82097454787196,34.103664429792346,12.472923076923077,0.0,0.4274364050263854,0.0,11.838461538461539,13.17
Mersin,Gülnar,36.35867141263686,33.35835893875683,13.62023076923077,0.0,0.43664506774653594,0.0,13.016153846153847,14.406153846153845
Mersin,Merkez,36.959120808114974,34.426262992314086,12.472923076923077,0.0,0.4274364050263854,0.0,11.838461538461539,13.17
Mersin,Mut,36.71847838339097,33.39806491811672,13.62023076923077,0.0,0.43664506774653594,0.0,13.016153846153847,14.406153846153845
Mersin,Silifke,36.5823700740844,33.81624708981756,16.118846153846153,0.0,0.4185998153262733,0.0,15.527692307692309,16.787692307692307
Mersin,Tarsus,37.05973893131646,34.81905843349686,19.747307692307693,0.0,0.36655606185490563,0.0,19.256923076923076,20.383076923076924
Mersin,Çamlıyayla,37.16286333664461,34.56423315043107,12.472923076923077,0.0,0.4274364050263854,0.0,11.838461538461539,13.17
Mugla,Bodrum,37.058254943713486,27.488792876906977,19.860076923076925,0.0,0.3259297024515738,0.0,19.447692307692307,20.37153846153846
Mugla,Dalaman,36.84324447726233,28.944802880130904,17.18169230769231,0.0,0.39881082272280644,0.0,16.42923076923077,17.706153846153846
Mugla,Datça,36.74167091298765,27.679896518349743,19.997846153846154,0.0,0.32176428499032017,0.0,19.53076923076923,20.525384615384613
Mugla,Fethiye,36.711272275022594,29.32294560257271,17.102461538461537,0.0,0.3872966031055788,0.0,16.482307692307693,17.58076923076923
Mugla,Kavaklıdere,37.47303100559186,28.35724963915983,15.995461538461537,0.0,0.388890167181143,0.0,15.252307692307692,16.55076923076923
Mugla,Köyceğiz,36.99849654723355,28.72618382532384,17.18169230769231,0.0,0.39881082272280644,0.0,16.42923076923077,17.706153846153846
Mugla,Marmaris,36.81415331005424,28.18730955408217,18.431076923076922,0.0,0.3424986886723426,0.0,17.864615384615384,18.892307692307693
Mugla,Merkez,37.22794935067296,28.43791915901753,17.18169230769231,0.0,0.39881082272280644,0.0,16.42923076923077,17.706153846153846
Mugla,Milas,37.28438891645066,27.73195978803985,18.246615384615385,0.0,0.4057888479075375,0.0,17.526153846153846,18.88153846153846
Mugla,Ortaca,36.78387375955048,28.70036755283864,17.18169230769231,0.0,0.39881082272280644,0.0,16.42923076923077,17.706153846153846
Mugla,Ula,37.07318447056209,28.450613734854347,17.18169230769231,0.0,0.39881082272280644,0.0,16.42923076923077,17.706153846153846
Mugla,Yatağan,37.35391340329978,28.126101751686445,15.995461538461537,0.0,0.388890167181143,0.0,15.252307692307692,16.55076923076923
Mus,Bulanık,39.07172371311799,42.19975746875146,8.697384615384616,0.0,0.7865698131799349,0.0,7.317692307692307,9.965384615384616
Mus,Hasköy,38.670405076211416,41.85750068830133,10.140153846153847,0.0,0.6476783805880277,0.0,9.046923076923077,11.219999999999999
Mus,Korkut,38.81947823534126,41.948815172293536,9.068000000000001,0.0,0.7336762870289499,0.0,7.737692307692308,10.24923076923077
Mus,Malazgirt,39.210883868372136,42.505286479747774,8.697384615384616,0.0,0.7865698131799349,0.0,7.317692307692307,9.965384615384616
Mus,Merkez,38.848864699962455,41.54248649743613,9.119307692307691,0.0,0.614567561225761,0.0,8.032307692307693,10.084615384615384
Mus,Varto,39.19038117011303,41.48454601706278,9.119307692307691,0.0,0.614567561225761,0.0,8.032307692307693,10.084615384615384
Nevsehir,Acıgöl,38.541768049548125,34.49634744824882,11.483692307692307,0.0,0.5182836946747221,0.0,10.930769230769231,12.433846153846153
Nevsehir,Avanos,38.93468155878,34.87396028557973,11.582307692307692,0.0,0.539399061732129,0.0,11.01,12.57076923076923
Nevsehir,Derinkuyu,38.43244246616864,34.75116566588555,11.035846153846155,0.0,0.5069979971353701,0.0,10.493846153846153,11.938461538461537
Nevsehir,Gülşehir,38.7621590609788,34.46834194744593,11.539615384615384,0.0,0.548240296538108,0.0,10.948461538461537,12.547692307692309
Nevsehir,Hacıbektaş,39.01078281205235,34.652287120787754,11.539615384615384,0.0,0.548240296538108,0.0,10.948461538461537,12.547692307692309
Nevsehir,Kozaklı,39.28302436807687,34.77845703304824,11.02,0.0,0.5629237099479506,0.0,10.43,12.014615384615384
Nevsehir,Merkez,38.61920133473421,34.72063294290639,11.035846153846155,0.0,0.5069979971353701,0.0,10.493846153846153,11.938461538461537
Nevsehir,Ürgüp,38.633439157785176,34.94941317984889,11.035846153846155,0.0,0.5069979971353701,0.0,10.493846153846153,11.938461538461537
Nigde,Altunhisar,38.058824828431945,34.35938340716272,10.965461538461538,0.0,0.4828183272687713,0.0,10.44076923076923,11.807692307692308
Nigde,Bor,37.8558641745533,34.566635493106155,10.965461538461538,0.0,0.4828183272687713,0.0,10.44076923076923,11.807692307692308
Nigde,Merkez,38.16510290174786,34.81151311059958,8.334538461538461,0.0,0.456206011632146,0.0,7.855384615384616,9.09923076923077
Nigde,Ulukışla,37.56177279359066,34.6464955695093,11.004999999999999,0.0,0.4839298162555639,0.0,10.450769230769229,11.808461538461538
Nigde,Çamardı,37.97380558292353,35.107384608476146,8.334538461538461,0.0,0.456206011632146,0.0,7.855384615384616,9.09923076923077
Nigde,Çiftlik,38.28881585097615,34.48722027727221,11.483692307692307,0.0,0.5182836946747221,0.0,10.930769230769231,12.433846153846153
Ordu,Akkuş,40.81664535166597,36.98346289530018,12.674153846153846,0.0,0.5660243720402762,0.0,12.102307692307692,13.683846153846153
Ordu,Aybastı,40.65476070261048,37.44529381980585,8.17723076923077,0.0,0.6959095477282445,0.0,7.1923076923076925,9.330769230769231
Ordu,Fatsa,40.96791883549378,37.532272581498496,13.888615384615386,0.0,0.5650501132698283,0.0,13.296923076923077,14.848461538461539
Ordu,Gölköy,40.67646914367819,37.6594423863165,8.17723076923077,0.0,0.6959095477282445,0.0,7.1923076923076925,9.330769230769231
Ordu,Gülyalı,40.93277742058096,38.05069604369467,14.784692307692307,0.0,0.5231210954199544,0.0,14.256153846153845,15.745384615384616
Ordu,Gürgentepe,40.81578965925254,37.60450522254151,13.888615384615386,0.0,0.5650501132698283,0.0,13.296923076923077,14.848461538461539
Ordu,Kabadüz,40.72532424313874,37.98332470341959,6.702692307692308,0.0,0.6956876892304087,0.0,5.67076923076923,7.873846153846154
Ordu,Kabataş,40.78862001970443,37.48447494597251,13.888615384615386,0.0,0.5650501132698283,0.0,13.296923076923077,14.848461538461539
Ordu,Korgan,40.7794622768025,37.36957541176251,13.888615384615386,0.0,0.5650501132698283,0.0,13.296923076923077,14.848461538461539
Ordu,Kumru,40.83618003785275,37.27488190564304,13.888615384615386,0.0,0.5650501132698283,0.0,13.296923076923077,14.848461538461539
Ordu,Merkez,40.9191066875618,37.8868144809844,14.784692307692307,0.0,0.5231210954199544,0.0,14.256153846153845,15.745384615384616
Ordu,Mesudiye,40.51999568707511,37.86182981612889,6.702692307692308,0.0,0.6956876892304087,0.0,5.67076923076923,7.873846153846154
Ordu,Perşembe,41.03273746981066,37.72484398410951,13.888615384615386,0.0,0.5650501132698283,0.0,13.296923076923077,14.848461538461539
Ordu,Ulubey,40.82093963342631,37.777923817452894,13.888615384615386,0.0,0.5650501132698283,0.0,13.296923076923077,14.848461538461539
Ordu,Çamaş,40.88326297568416,37.55283054843706,13.888615384615386,0.0,0.5650501132698283,0.0,13.296923076923077,14.848461538461539
Ordu,Çaybaşı,40.97452990588806,37.04444376790641,12.674153846153846,0.0,0.5660243720402762,0.0,12.102307692307692,13.683846153846153
Ordu,Ünye,41.02634864227907,37.27054967737633,13.888615384615386,0.0,0.5650501132698283,0.0,13.296923076923077,14.848461538461539
Ordu,İkizce,41.0490350817516,37.06681854018471,12.674153846153846,0.0,0.5660243720402762,0.0,12.102307692307692,13.683846153846153
Osmaniye,Bahçe,37.23983950310407,36.60046325639051,15.619615384615383,0.0,0.38421316575435965,0.0,15.023076923076925,16.303846153846152
Osmaniye,Düziçi,37.28654132024345,36.43251423726141,15.931846153846152,0.0,0.3773645069050122,0.0,15.343076923076923,16.53230769230769
Osmaniye,Hasanbeyli,37.14032481257178,36.51093136662881,17.579538461538462,0.0,0.360797239814451,0.0,17.03076923076923,18.14076923076923
Osmaniye,Kadirli,37.3551504929279,36.12098466181666,15.931846153846152,0.0,0.3773645069050122,0.0,15.343076923076923,16.53230769230769
Osmaniye,Merkez,37.05551763654233,36.34890519517917,17.579538461538462,0.0,0.360797239814451,0.0,17.03076923076923,18.14076923076923
Osmaniye,Sumbas,37.42870364047124,36.01035273738327,15.931846153846152,0.0,0.3773645069050122,0.0,15.343076923076923,16.53230769230769
Osmaniye,Toprakkale,37.12934916780117,36.16092986561621,17.579538461538462,0.0,0.360797239814451,0.0,17.03076923076923,18.14076923076923
Rize,Ardeşen,41.03269916020601,41.12437343473351,6.339384615384615,0.0,0.6084940940213872,0.0,5.382307692307692,7.4399999999999995
Rize,Derepazarı,41.006538741709605,40.44962918337612,11.144769230769231,0.0,0.5899896699526926,0.0,10.37923076923077,12.223846153846154
Rize,Fındıklı,41.1561630903633,41.23699064852412,6.339384615384615,0.0,0.6084940940213872,0.0,5.382307692307692,7.4399999999999995
Rize,Güneysu,40.94743863853946,40.64180340669834,11.144769230769231,0.0,0.5899896699526926,0.0,10.37923076923077,12.223846153846154
Rize,Hemşin,41.00081412695676,40.86974401737566,11.144769230769231,0.0,0.5899896699526926,0.0,10.37923076923077,12.223846153846154
Rize,Kalkandere,40.91725459142249,40.48595569515576,11.144769230769231,0.0,0.5899896699526926,0.0,10.37923076923077,12.223846153846154
Rize,Merkez,40.94759873398601,40.59072291408524,11.144769230769231,0.0,0.5899896699526926,0.0,10.37923076923077,12.223846153846154
Rize,Pazar,41.138655638913264,40.86774455782292,11.144769230769231,0.0,0.5899896699526926,0.0,10.37923076923077,12.223846153846154
Rize,Çamlıhemşin,40.88486827195794,40.97096307968468,6.339384615384615,0.0,0.6084940940213872,0.0,5.382307692307692,7.4399999999999995
Rize,Çayeli,40.95082456597754,40.76421443475466,11.144769230769231,0.0,0.5899896699526926,0.0,10.37923076923077,12.223846153846154
Rize,İkizdere,40.70986896964304,40.6432959422176,4.714538461538462,0.0,0.6269616631196011,0.0,3.6284615384615386,5.747692307692308
Rize,İyidere,40.992305244610776,40.3948861809386,11.144769230769231,0.0,0.5899896699526926,0.0,10.37923076923077,12.223846153846154
Sakarya,Akyazı,40.64221327536436,30.75022877366203,11.427538461538461,0.0,0.6390733141468986,0.0,10.700769230769232,12.346153846153847
Sakarya,Ferizli,40.987122977609474,30.54396888411648,14.74146153846154,0.0,0.5095350460784,0.0,14.058461538461538,15.39846153846154
Sakarya,Geyve,40.50950100011149,30.320781139157702,11.427538461538461,0.0,0.6390733141468986,0.0,10.700769230769232,12.346153846153847
Sakarya,Hendek,40.80408160828496,30.77690279853078,14.74146153846154,0.0,0.5095350460784,0.0,14.058461538461538,15.39846153846154
Sakarya,Karapürçek,40.631471591484285,30.5765192433276,11.427538461538461,0.0,0.6390733141468986,0.0,10.700769230769232,12.346153846153847
Sakarya,Karasu,41.03826894855067,30.67113438083818,14.74146153846154,0.0,0.5095350460784,0.0,14.058461538461538,15.39846153846154
Sakarya,Kaynarca,41.041056133466,30.40208320253412,14.74146153846154,0.0,0.5095350460784,0.0,14.058461538461538,15.39846153846154
Sakarya,Kocaali,40.98274115313361,30.907510553991465,14.74146153846154,0.0,0.5095350460784,0.0,14.058461538461538,15.39846153846154
Sakarya,Merkez,40.79944278747429,30.44335533786952,14.74146153846154,0.0,0.5095350460784,0.0,14.058461538461538,15.39846153846154
Sakarya,Pamukova,40.5501814620833,30.122145506931325,12.633230769230769,0.0,0.6183053338477378,0.0,11.878461538461538,13.464615384615383
Sakarya,Sapanca,40.69096467067413,30.343657807553264,11.427538461538461,0.0,0.6390733141468986,0.0,10.700769230769232,12.346153846153847
Sakarya,Söğütlü,40.899201235359946,30.52582052725865,14.74146153846154,0.0,0.5095350460784,0.0,14.058461538461538,15.39846153846154
Sakarya,Taraklı,40.44273966729181,30.5463304426355,11.427538461538461,0.0,0.6390733141468986,0.0,10.700769230769232,12.346153846153847
Samsun,Alaçam,41.496867540926736,35.57352227439552,12.706384615384616,0.0,0.5896544023976501,0.0,12.108461538461539,13.649230769230769
Samsun,Asarcik,41.002391334959775,36.33018702699551,11.876615384615384,0.0,0.6192050427314976,0.0,11.225384615384616,12.900769230769232
Samsun,Ayvacık,40.9527212391134,36.55084738048287,11.876615384615384,0.0,0.6192050427314976,0.0,11.225384615384616,12.900769230769232
Samsun,Bafra,41.45843073997171,35.84297774096366,12.706384615384616,0.0,0.5896544023976501,0.0,12.108461538461539,13.649230769230769
Samsun,Havza,41.065262611485664,35.73688768237795,11.096384615384615,0.0,0.6449032515139623,0.0,10.367692307692307,12.146153846153847
Samsun,Kavak,41.094444801657055,36.041206848943474,11.876615384615384,0.0,0.6192050427314976,0.0,11.225384615384616,12.900769230769232
Samsun,Ladik,40.92042159336108,35.97519642033695,11.876615384615384,0.0,0.6192050427314976,0.0,11.225384615384616,12.900769230769232
Samsun,Merkez,41.24089170573669,36.21798746447706,11.876615384615384,0.0,0.6192050427314976,0.0,11.225384615384616,12.900769230769232
Samsun,Ondokuz Mayıs,41.4631779767352,36.04916861563674,14.847384615384616,0.0,0.4923273500348858,0.0,14.26769230769231,15.715384615384616
Samsun,Salıpazarı,40.9953588443449,36.80615724721613,12.674153846153846,0.0,0.5660243720402762,0.0,12.102307692307692,13.683846153846153
Samsun,Tekkeköy,41.13422643428089,36.46762736269903,11.876615384615384,0.0,0.6192050427314976,0.0,11.225384615384616,12.900769230769232
Samsun,Terme,41.18337382730494,36.94177807250468,12.674153846153846,0.0,0.5660243720402762,0.0,12.102307692307692,13.683846153846153
Samsun,Vezirköprü,41.18413486127703,35.305996892155704,10.710461538461539,0.0,0.648312044898762,0.0,9.966923076923077,11.74076923076923
Samsun,Yakakent,41.60824045476733,35.52349129842116,12.706384615384616,0.0,0.5896544023976501,0.0,12.108461538461539,13.649230769230769
Samsun,Çarşamba,41.2070958419634,36.672064951083456,12.674153846153846,0.0,0.5660243720402762,0.0,12.102307692307692,13.683846153846153
Sanliurfa,Akçakale,36.790033300138894,38.80467899865793,18.135692307692306,0.0,0.41145804789893453,0.0,17.516153846153845,18.674615384615386
